{
"type": "FeatureCollection",
"crs": { "type": "name", "properties": { "name": "urn:ogc:def:crs:OGC:1.3:CRS84" } },
                                                                                                                                  
"features": [
{ "type": "Feature", "properties": { "lat": "55.7520345", "lon": "37.59849214", "photographed": "0", "name": "Доходный дом с магазинами", "address": "Арбат ул., дом 4, строение 1" }, "geometry": { "type": "Point", "coordinates": [ 37.59849214, 55.7520345 ] } },
{ "type": "Feature", "properties": { "lat": "55.75168999", "lon": "37.59744111", "photographed": "0", "name": "Доходный дом", "address": "Арбат ул., дом 6\/2" }, "geometry": { "type": "Point", "coordinates": [ 37.59744111, 55.75168999 ] } },
{ "type": "Feature", "properties": { "lat": "", "lon": "", "photographed": "0", "name": "Фрагмент кладки колокольни храма Николы Явленного", "address": "Арбат ул., дом 16" }, "geometry": { "type": "Point", "coordinates": [ 0.0, 0.0 ] } },
{ "type": "Feature", "properties": { "lat": "55.7509199", "lon": "37.59369514", "photographed": "0", "name": "Дом церкви Николая Чудотворца Явленного с залом для общественных собраний и библиотекой", "address": "Арбат ул., дом 18\/1, строение 2" }, "geometry": { "type": "Point", "coordinates": [ 37.59369514, 55.7509199 ] } },
{ "type": "Feature", "properties": { "lat": "55.75042339", "lon": "37.59534804", "photographed": "0", "name": "Квартира-мастерская, в которой с  1934 г. находилась мастерская художника А.Корина", "address": "Арбат ул., дом 23, строение 1" }, "geometry": { "type": "Point", "coordinates": [ 37.59534804, 55.75042339 ] } },
{ "type": "Feature", "properties": { "lat": "55.74968874", "lon": "37.59295852", "photographed": "0", "name": "Доходный дом 1837-1839 гг.", "address": "Арбат ул., дом 31" }, "geometry": { "type": "Point", "coordinates": [ 37.59295852, 55.74968874 ] } },
{ "type": "Feature", "properties": { "lat": "55.74953167", "lon": "37.59240157", "photographed": "0", "name": "Доходный дом", "address": "Арбат ул., дом 33" }, "geometry": { "type": "Point", "coordinates": [ 37.59240157, 55.74953167 ] } },
{ "type": "Feature", "properties": { "lat": "55.74909594", "lon": "37.5922758", "photographed": "0", "name": "Жилой дом", "address": "Калошин пер., дом 12, строение 1" }, "geometry": { "type": "Point", "coordinates": [ 37.5922758, 55.74909594 ] } },
{ "type": "Feature", "properties": { "lat": "", "lon": "", "photographed": "0", "name": "Ограда с восточными воротами", "address": "" }, "geometry": { "type": "Point", "coordinates": [ 0.0, 0.0 ] } },
{ "type": "Feature", "properties": { "lat": "", "lon": "", "photographed": "0", "name": "Ограда с северными воротами", "address": "" }, "geometry": { "type": "Point", "coordinates": [ 0.0, 0.0 ] } },
{ "type": "Feature", "properties": { "lat": "55.74866527", "lon": "37.59093731", "photographed": "0", "name": "Службы", "address": "Арбат ул., дом 37\/2, строение 3" }, "geometry": { "type": "Point", "coordinates": [ 37.59093731, 55.74866527 ] } },
{ "type": "Feature", "properties": { "lat": "55.74849807", "lon": "37.59044324", "photographed": "0", "name": "Флигель западный", "address": "Арбат ул., дом 37\/2, строение 2" }, "geometry": { "type": "Point", "coordinates": [ 37.59044324, 55.74849807 ] } },
{ "type": "Feature", "properties": { "lat": "55.74849807", "lon": "37.59044324", "photographed": "0", "name": "Флигель южный", "address": "Арбат ул., дом 37\/2, строение 2" }, "geometry": { "type": "Point", "coordinates": [ 37.59044324, 55.74849807 ] } },
{ "type": "Feature", "properties": { "lat": "55.74809273", "lon": "37.58652658", "photographed": "0", "name": "Главный дом", "address": "Арбат ул., дом 44, строение 1" }, "geometry": { "type": "Point", "coordinates": [ 37.58652658, 55.74809273 ] } },
{ "type": "Feature", "properties": { "lat": "55.74824473", "lon": "37.58613133", "photographed": "0", "name": "Доходный дом", "address": "Арбат ул., дом 44, строение 2" }, "geometry": { "type": "Point", "coordinates": [ 37.58613133, 55.74824473 ] } },
{ "type": "Feature", "properties": { "lat": "55.74851327", "lon": "37.58623912", "photographed": "0", "name": "Служебный флигель", "address": "Арбат ул., дом 44, строение 3" }, "geometry": { "type": "Point", "coordinates": [ 37.58623912, 55.74851327 ] } },
{ "type": "Feature", "properties": { "lat": "55.74734283", "lon": "37.58523301", "photographed": "0", "name": "Квартира поэта А.Белого (Бугаева Бориса Николаевича); в 1903-1907 гг. здесь собирался \"кружок московских символистов \"Аргонавты\". Зимой 1903\/1904 гг. квартиру посещал А.А.Блок", "address": "Арбат ул., дом 55\/32" }, "geometry": { "type": "Point", "coordinates": [ 37.58523301, 55.74734283 ] } },
{ "type": "Feature", "properties": { "lat": "", "lon": "", "photographed": "0", "name": "Наземный вестибюль", "address": "" }, "geometry": { "type": "Point", "coordinates": [ 0.0, 0.0 ] } },
{ "type": "Feature", "properties": { "lat": "", "lon": "", "photographed": "0", "name": "Перронный зал", "address": "" }, "geometry": { "type": "Point", "coordinates": [ 0.0, 0.0 ] } },
{ "type": "Feature", "properties": { "lat": "55.75419268", "lon": "37.59006595", "photographed": "0", "name": "Дом, в котором в 1918-1922 гг. жила поэтесса М.И.Цветаева", "address": "Борисоглебский пер., дом 6, строение 1" }, "geometry": { "type": "Point", "coordinates": [ 37.59006595, 55.75419268 ] } },
{ "type": "Feature", "properties": { "lat": "55.75396471", "lon": "37.58933831", "photographed": "0", "name": "Александровский приют для неизлечимо больных и калек комитета \"Христианская помощь \"Общества Красного Креста\". Комплекс. XIX в.", "address": "Борисоглебский пер., дом 9, строение 1" }, "geometry": { "type": "Point", "coordinates": [ 37.58933831, 55.75396471 ] } },
{ "type": "Feature", "properties": { "lat": "55.75396471", "lon": "37.58933831", "photographed": "0", "name": "Главный корпус", "address": "Борисоглебский пер., дом 9, строение 1" }, "geometry": { "type": "Point", "coordinates": [ 37.58933831, 55.75396471 ] } },
{ "type": "Feature", "properties": { "lat": "55.75396471", "lon": "37.58933831", "photographed": "0", "name": "Домовая церковь", "address": "Борисоглебский пер., дом 9, строение 1" }, "geometry": { "type": "Point", "coordinates": [ 37.58933831, 55.75396471 ] } },
{ "type": "Feature", "properties": { "lat": "55.75395458", "lon": "37.58888915", "photographed": "0", "name": "Корпус для сестер милосердия", "address": "Борисоглебский пер., дом 9, строение 2" }, "geometry": { "type": "Point", "coordinates": [ 37.58888915, 55.75395458 ] } },
{ "type": "Feature", "properties": { "lat": "55.75492724", "lon": "37.59039832", "photographed": "0", "name": "Городская усадьба", "address": "Борисоглебский пер., дом 15, строение 3" }, "geometry": { "type": "Point", "coordinates": [ 37.59039832, 55.75492724 ] } },
{ "type": "Feature", "properties": { "lat": "55.75492724", "lon": "37.59039832", "photographed": "0", "name": "Главный дом", "address": "Борисоглебский пер., дом 15, строение 3" }, "geometry": { "type": "Point", "coordinates": [ 37.59039832, 55.75492724 ] } },
{ "type": "Feature", "properties": { "lat": "55.75481579", "lon": "37.59012883", "photographed": "0", "name": "Флигель", "address": "Борисоглебский пер., дом 15, строение 1" }, "geometry": { "type": "Point", "coordinates": [ 37.59012883, 55.75481579 ] } },
{ "type": "Feature", "properties": { "lat": "", "lon": "", "photographed": "0", "name": "Наземный вестибюль", "address": "" }, "geometry": { "type": "Point", "coordinates": [ 0.0, 0.0 ] } },
{ "type": "Feature", "properties": { "lat": "", "lon": "", "photographed": "0", "name": "Перронный зал", "address": "" }, "geometry": { "type": "Point", "coordinates": [ 0.0, 0.0 ] } },
{ "type": "Feature", "properties": { "lat": "55.74956207", "lon": "37.60796937", "photographed": "0", "name": "Боковой флигель", "address": "ул. Воздвиженка, д. 3\/5, стр. 1" }, "geometry": { "type": "Point", "coordinates": [ 37.60796937, 55.74956207 ] } },
{ "type": "Feature", "properties": { "lat": "55.74956207", "lon": "37.60796937", "photographed": "0", "name": "Боковой флигель", "address": "ул. Воздвиженка, д. 3\/5, стр. 1" }, "geometry": { "type": "Point", "coordinates": [ 37.60796937, 55.74956207 ] } },
{ "type": "Feature", "properties": { "lat": "55.74956207", "lon": "37.60796937", "photographed": "0", "name": "Боковой флигель (конюшни)", "address": "ул. Воздвиженка, д. 3\/5, стр. 1" }, "geometry": { "type": "Point", "coordinates": [ 37.60796937, 55.74956207 ] } },
{ "type": "Feature", "properties": { "lat": "55.74956207", "lon": "37.60796937", "photographed": "0", "name": "Боковой флигель (манеж)", "address": "ул. Воздвиженка, д. 3\/5, стр. 1" }, "geometry": { "type": "Point", "coordinates": [ 37.60796937, 55.74956207 ] } },
{ "type": "Feature", "properties": { "lat": "", "lon": "", "photographed": "0", "name": "Ворота", "address": "нет данных БТИ" }, "geometry": { "type": "Point", "coordinates": [ 0.0, 0.0 ] } },
{ "type": "Feature", "properties": { "lat": "", "lon": "", "photographed": "0", "name": "Парадный двор", "address": "нет данных БТИ" }, "geometry": { "type": "Point", "coordinates": [ 0.0, 0.0 ] } },
{ "type": "Feature", "properties": { "lat": "55.75260699", "lon": "37.61022414", "photographed": "0", "name": "Меблированные комнаты \"Петергоф\" (в 1913 г. - 4-й Дом Советов, в 1919-1946 гг. - приемная председателя ВЦИК М.И.Калинина)", "address": "Воздвиженка ул., дом 4\/7, строение 1" }, "geometry": { "type": "Point", "coordinates": [ 37.61022414, 55.75260699 ] } },
{ "type": "Feature", "properties": { "lat": "55.7519737", "lon": "37.60708004", "photographed": "0", "name": "Главный дом", "address": "Воздвиженка ул., дом 5\/25, строение 1" }, "geometry": { "type": "Point", "coordinates": [ 37.60708004, 55.7519737 ] } },
{ "type": "Feature", "properties": { "lat": "55.7519737", "lon": "37.60708004", "photographed": "0", "name": "Дом садовника", "address": "Воздвиженка ул., дом 5\/25, строение 17" }, "geometry": { "type": "Point", "coordinates": [ 37.60708004, 55.7519737 ] } },
{ "type": "Feature", "properties": { "lat": "55.7520953", "lon": "37.60766394", "photographed": "0", "name": "Палаты Государева Аптекарского двора", "address": "Воздвиженка ул., дом 5\/25, строение 19" }, "geometry": { "type": "Point", "coordinates": [ 37.60766394, 55.7520953 ] } },
{ "type": "Feature", "properties": { "lat": "55.75204463", "lon": "37.60743936", "photographed": "0", "name": "Флигель во дворе с полуциркульной стеной", "address": "Воздвиженка ул., дом 5\/25, строение 18" }, "geometry": { "type": "Point", "coordinates": [ 37.60743936, 55.75204463 ] } },
{ "type": "Feature", "properties": { "lat": "55.7520953", "lon": "37.60766394", "photographed": "0", "name": "Палаты Государева Аптекарского двора", "address": "Воздвиженка ул., дом 5\/25, строение 19" }, "geometry": { "type": "Point", "coordinates": [ 37.60766394, 55.7520953 ] } },
{ "type": "Feature", "properties": { "lat": "55.75254113", "lon": "37.60642427", "photographed": "0", "name": "Жилые дома храма Воздвижения Креста Господня и Московской Синодальной конторы", "address": "Воздвиженка ул., дом 7\/6, строение 2" }, "geometry": { "type": "Point", "coordinates": [ 37.60642427, 55.75254113 ] } },
{ "type": "Feature", "properties": { "lat": "55.75254113", "lon": "37.60642427", "photographed": "0", "name": "Жилой дом прокурора Синодальной конторы", "address": "Воздвиженка ул., дом 7\/6, строение 2" }, "geometry": { "type": "Point", "coordinates": [ 37.60642427, 55.75254113 ] } },
{ "type": "Feature", "properties": { "lat": "55.7524398", "lon": "37.60547205", "photographed": "0", "name": "Жилой дом священнослужителей кремлевских соборов с кельями Крестовоздвиженского монастыря", "address": "Воздвиженка ул., дом 7\/6, строение 1" }, "geometry": { "type": "Point", "coordinates": [ 37.60547205, 55.7524398 ] } },
{ "type": "Feature", "properties": { "lat": "55.75362528", "lon": "37.60500493", "photographed": "0", "name": "Городская усадьба В.А.Морозовой", "address": "Воздвиженка ул., дом 14, строение 2" }, "geometry": { "type": "Point", "coordinates": [ 37.60500493, 55.75362528 ] } },
{ "type": "Feature", "properties": { "lat": "55.75321493", "lon": "37.60460967", "photographed": "0", "name": "Главный дом", "address": "Воздвиженка ул., дом 14, строение 1" }, "geometry": { "type": "Point", "coordinates": [ 37.60460967, 55.75321493 ] } },
{ "type": "Feature", "properties": { "lat": "", "lon": "", "photographed": "0", "name": "Ограда с воротами", "address": "" }, "geometry": { "type": "Point", "coordinates": [ 0.0, 0.0 ] } },
{ "type": "Feature", "properties": { "lat": "", "lon": "", "photographed": "0", "name": "Садовый фонтан", "address": "" }, "geometry": { "type": "Point", "coordinates": [ 0.0, 0.0 ] } },
{ "type": "Feature", "properties": { "lat": "55.75300215", "lon": "37.60404373", "photographed": "0", "name": "Сторожка", "address": "Воздвиженка ул., дом 14, строение 3" }, "geometry": { "type": "Point", "coordinates": [ 37.60404373, 55.75300215 ] } },
{ "type": "Feature", "properties": { "lat": "55.75362528", "lon": "37.60500493", "photographed": "0", "name": "Хозяйственный флигель; с 1920-х гг. общежитие и типография Международного аграрного института", "address": "Воздвиженка ул., дом 14, строение 2" }, "geometry": { "type": "Point", "coordinates": [ 37.60500493, 55.75362528 ] } },
{ "type": "Feature", "properties": { "lat": "55.75325039", "lon": "37.60363949", "photographed": "0", "name": "Жилой дом с росписью в интерьере", "address": "Воздвиженка ул., дом 16, строение 1" }, "geometry": { "type": "Point", "coordinates": [ 37.60363949, 55.75325039 ] } },
{ "type": "Feature", "properties": { "lat": "55.75325039", "lon": "37.60363949", "photographed": "0", "name": "Ограда с воротами", "address": "Воздвиженка ул., дом 16, строение 1" }, "geometry": { "type": "Point", "coordinates": [ 37.60363949, 55.75325039 ] } },
{ "type": "Feature", "properties": { "lat": "55.75325039", "lon": "37.60363949", "photographed": "0", "name": "Привратницкая", "address": "Воздвиженка ул., дом 16, строение 1" }, "geometry": { "type": "Point", "coordinates": [ 37.60363949, 55.75325039 ] } },
{ "type": "Feature", "properties": { "lat": "55.75356449", "lon": "37.60364847", "photographed": "0", "name": "Хозяйственный флигель городской усадьбы А.А.Морозова", "address": "Воздвиженка ул., дом 16, строение 2" }, "geometry": { "type": "Point", "coordinates": [ 37.60364847, 55.75356449 ] } },
{ "type": "Feature", "properties": { "lat": "55.74414549", "lon": "37.58626607", "photographed": "0", "name": "Особняк Листа в Глазовском переулке со служебным флигелем", "address": "Глазовский пер., дом 8, строение 1" }, "geometry": { "type": "Point", "coordinates": [ 37.58626607, 55.74414549 ] } },
{ "type": "Feature", "properties": { "lat": "55.74414549", "lon": "37.58626607", "photographed": "0", "name": "Особняк Листа", "address": "Глазовский пер., дом 8, строение 1" }, "geometry": { "type": "Point", "coordinates": [ 37.58626607, 55.74414549 ] } },
{ "type": "Feature", "properties": { "lat": "", "lon": "", "photographed": "0", "name": "Служебный флигель", "address": "нет адреса БТИ" }, "geometry": { "type": "Point", "coordinates": [ 0.0, 0.0 ] } },
{ "type": "Feature", "properties": { "lat": "", "lon": "", "photographed": "0", "name": "Памятник Н.В.Гоголю", "address": "Гоголевский бульв." }, "geometry": { "type": "Point", "coordinates": [ 0.0, 0.0 ] } },
{ "type": "Feature", "properties": { "lat": "55.75048925", "lon": "37.59930961", "photographed": "0", "name": "Городская усадьба П.П. Хрущева - А.А. Котлярева", "address": "Гоголевский бульв., дом 31, строение 3" }, "geometry": { "type": "Point", "coordinates": [ 37.59930961, 55.75048925 ] } },
{ "type": "Feature", "properties": { "lat": "55.75046392", "lon": "37.59959707", "photographed": "0", "name": "Главный дом", "address": "Гоголевский бульв., дом 31, строение 2" }, "geometry": { "type": "Point", "coordinates": [ 37.59959707, 55.75046392 ] } },
{ "type": "Feature", "properties": { "lat": "55.75048925", "lon": "37.59930961", "photographed": "0", "name": "Доходный дом", "address": "Гоголевский бульв., дом 31, строение 3" }, "geometry": { "type": "Point", "coordinates": [ 37.59930961, 55.75048925 ] } },
{ "type": "Feature", "properties": { "lat": "55.75046392", "lon": "37.59959707", "photographed": "0", "name": "Ограда с пилонами ворот", "address": "Гоголевский бульв., дом 31, строение 2" }, "geometry": { "type": "Point", "coordinates": [ 37.59959707, 55.75046392 ] } },
{ "type": "Feature", "properties": { "lat": "55.75440545", "lon": "37.57942989", "photographed": "0", "name": "Церковь Девяти мучеников", "address": "Девятинский Б. пер., дом 15, строение 1" }, "geometry": { "type": "Point", "coordinates": [ 37.57942989, 55.75440545 ] } },
{ "type": "Feature", "properties": { "lat": "55.74428737", "lon": "37.58699371", "photographed": "0", "name": "Дом (деревянный)", "address": "Денежный пер., дом 9\/6" }, "geometry": { "type": "Point", "coordinates": [ 37.58699371, 55.74428737 ] } },
{ "type": "Feature", "properties": { "lat": "55.74473836", "lon": "37.58665235", "photographed": "0", "name": "Городская усадьба М.С.Грачева", "address": "Денежный пер., дом 11, строение 1" }, "geometry": { "type": "Point", "coordinates": [ 37.58665235, 55.74473836 ] } },
{ "type": "Feature", "properties": { "lat": "55.74473836", "lon": "37.58665235", "photographed": "0", "name": "Главный дом", "address": "Денежный пер., дом 11, строение 1" }, "geometry": { "type": "Point", "coordinates": [ 37.58665235, 55.74473836 ] } },
{ "type": "Feature", "properties": { "lat": "55.74473836", "lon": "37.58665235", "photographed": "0", "name": "Ограда с воротами", "address": "Денежный пер., дом 11, строение 1" }, "geometry": { "type": "Point", "coordinates": [ 37.58665235, 55.74473836 ] } },
{ "type": "Feature", "properties": { "lat": "55.74510826", "lon": "37.58647268", "photographed": "0", "name": "Жилой дом Н.К.Боля - К.А.Гутхейля", "address": "Денежный пер., дом 13, строение 1" }, "geometry": { "type": "Point", "coordinates": [ 37.58647268, 55.74510826 ] } },
{ "type": "Feature", "properties": { "lat": "55.74745937", "lon": "37.59262614", "photographed": "0", "name": "Дом, в котором в 1822-1830 гг. жил и умер русский военачальник И.И.Алексеев, участник взятия Измаила в 1790 г., герой русско-финляндской войны 1808 г. и Отечественной войны 1812 г.", "address": "Калошин пер., дом 2\/24" }, "geometry": { "type": "Point", "coordinates": [ 37.59262614, 55.74745937 ] } },
{ "type": "Feature", "properties": { "lat": "55.75318453", "lon": "37.60520256", "photographed": "0", "name": "Усадьба", "address": "Кисловский Б. пер., дом 1, строение 1" }, "geometry": { "type": "Point", "coordinates": [ 37.60520256, 55.75318453 ] } },
{ "type": "Feature", "properties": { "lat": "55.75117322", "lon": "37.6047534", "photographed": "0", "name": "Усадьба", "address": "Крестовоздвиженский пер., дом 2, строение 2" }, "geometry": { "type": "Point", "coordinates": [ 37.6047534, 55.75117322 ] } },
{ "type": "Feature", "properties": { "lat": "55.75186225", "lon": "37.59445871", "photographed": "0", "name": "Доходный дом А.Р.Ледницкого", "address": "Кривоникольский пер., дом 8" }, "geometry": { "type": "Point", "coordinates": [ 37.59445871, 55.75186225 ] } },
{ "type": "Feature", "properties": { "lat": "55.75411669", "lon": "37.59213207", "photographed": "0", "name": "Доходный дом", "address": "Молчановка М. ул., дом 8, строение 2" }, "geometry": { "type": "Point", "coordinates": [ 37.59213207, 55.75411669 ] } },
{ "type": "Feature", "properties": { "lat": "55.75687251", "lon": "37.61206569", "photographed": "0", "name": "Агрономический институт", "address": "Моховая ул., дом 11, строение 9" }, "geometry": { "type": "Point", "coordinates": [ 37.61206569, 55.75687251 ] } },
{ "type": "Feature", "properties": { "lat": "55.75647232", "lon": "37.61266756", "photographed": "0", "name": "Анатомический корпус", "address": "Моховая ул., дом 11, строение 10" }, "geometry": { "type": "Point", "coordinates": [ 37.61266756, 55.75647232 ] } },
{ "type": "Feature", "properties": { "lat": "55.75395964", "lon": "37.61022414", "photographed": "0", "name": "Дом священника (бывш. служебный корпус Главной московской аптеки)", "address": "Моховая ул., дом 9, строение 7" }, "geometry": { "type": "Point", "coordinates": [ 37.61022414, 55.75395964 ] } },
{ "type": "Feature", "properties": { "lat": "55.75659389", "lon": "37.61034092", "photographed": "0", "name": "Квартира, в которой жил Зелинский Николай Дмитриевич в 1893-1911 и 1917-1950 гг.", "address": "Моховая ул., дом 11, строение 3" }, "geometry": { "type": "Point", "coordinates": [ 37.61034092, 55.75659389 ] } },
{ "type": "Feature", "properties": { "lat": "55.75618864", "lon": "37.61140992", "photographed": "0", "name": "Корпус кафедры неорганической химии (ранее - Анатомический корпус)", "address": "Моховая ул., дом 11, строение 8" }, "geometry": { "type": "Point", "coordinates": [ 37.61140992, 55.75618864 ] } },
{ "type": "Feature", "properties": { "lat": "", "lon": "", "photographed": "0", "name": "Ограда", "address": "" }, "geometry": { "type": "Point", "coordinates": [ 0.0, 0.0 ] } },
{ "type": "Feature", "properties": { "lat": "", "lon": "", "photographed": "0", "name": "Ограда", "address": "" }, "geometry": { "type": "Point", "coordinates": [ 0.0, 0.0 ] } },
{ "type": "Feature", "properties": { "lat": "", "lon": "", "photographed": "0", "name": "Памятник А.И.Герцену", "address": "" }, "geometry": { "type": "Point", "coordinates": [ 0.0, 0.0 ] } },
{ "type": "Feature", "properties": { "lat": "", "lon": "", "photographed": "0", "name": "Памятник М.В.Ломоносову", "address": "" }, "geometry": { "type": "Point", "coordinates": [ 0.0, 0.0 ] } },
{ "type": "Feature", "properties": { "lat": "", "lon": "", "photographed": "0", "name": "Памятник Н.П.Огареву", "address": "" }, "geometry": { "type": "Point", "coordinates": [ 0.0, 0.0 ] } },
{ "type": "Feature", "properties": { "lat": "55.75356956", "lon": "37.61014329", "photographed": "0", "name": "Психологический институт им. Л.Г.Щукиной", "address": "Моховая ул., дом 9, строение 4" }, "geometry": { "type": "Point", "coordinates": [ 37.61014329, 55.75356956 ] } },
{ "type": "Feature", "properties": { "lat": "55.75599614", "lon": "37.61027804", "photographed": "0", "name": "Физиологический и Гистологический институты; виварий", "address": "Моховая ул., дом 11, строение 4" }, "geometry": { "type": "Point", "coordinates": [ 37.61027804, 55.75599614 ] } },
{ "type": "Feature", "properties": { "lat": "55.75659389", "lon": "37.61034092", "photographed": "0", "name": "Химический факультет (с лабораторией Н.Д.Зелинского)", "address": "Моховая ул., дом 11, строение 3" }, "geometry": { "type": "Point", "coordinates": [ 37.61034092, 55.75659389 ] } },
{ "type": "Feature", "properties": { "lat": "55.75501336", "lon": "37.60937972", "photographed": "0", "name": "Жилой дом", "address": "Никитская Б. ул., дом 3, строение 1" }, "geometry": { "type": "Point", "coordinates": [ 37.60937972, 55.75501336 ] } },
{ "type": "Feature", "properties": { "lat": "", "lon": "", "photographed": "0", "name": "Дом графа Орлова", "address": "Никитская Б. ул., дом. 5\/7" }, "geometry": { "type": "Point", "coordinates": [ 0.0, 0.0 ] } },
{ "type": "Feature", "properties": { "lat": "55.75371647", "lon": "37.59970487", "photographed": "0", "name": "Флигели городской усадьбы", "address": "Никитский бульв., дом 7" }, "geometry": { "type": "Point", "coordinates": [ 37.59970487, 55.75371647 ] } },
{ "type": "Feature", "properties": { "lat": "55.75371647", "lon": "37.59970487", "photographed": "0", "name": "Флигель", "address": "Никитский бульв., дом 7" }, "geometry": { "type": "Point", "coordinates": [ 37.59970487, 55.75371647 ] } },
{ "type": "Feature", "properties": { "lat": "55.75414202", "lon": "37.59982165", "photographed": "0", "name": "Флигель", "address": "Никитский бульв., дом 7А" }, "geometry": { "type": "Point", "coordinates": [ 37.59982165, 55.75414202 ] } },
{ "type": "Feature", "properties": { "lat": "55.75414202", "lon": "37.59982165", "photographed": "0", "name": "Флигель", "address": "Никитский бульв., дом 7А" }, "geometry": { "type": "Point", "coordinates": [ 37.59982165, 55.75414202 ] } },
{ "type": "Feature", "properties": { "lat": "55.75029166", "lon": "37.59021866", "photographed": "0", "name": "Доходный дом М.М.Стрелковой", "address": "Николопесковский Б. пер., дом 7, строение 1" }, "geometry": { "type": "Point", "coordinates": [ 37.59021866, 55.75029166 ] } },
{ "type": "Feature", "properties": { "lat": "55.75050952", "lon": "37.59010188", "photographed": "0", "name": "Городская усадьба Я.А. Полякова", "address": "Николопесковский Б. пер., дом 9, строение 1" }, "geometry": { "type": "Point", "coordinates": [ 37.59010188, 55.75050952 ] } },
{ "type": "Feature", "properties": { "lat": "55.75050952", "lon": "37.59010188", "photographed": "0", "name": "Ограда с воротами и калитками", "address": "Николопесковский Б. пер., дом 9, строение 1" }, "geometry": { "type": "Point", "coordinates": [ 37.59010188, 55.75050952 ] } },
{ "type": "Feature", "properties": { "lat": "55.75050952", "lon": "37.59010188", "photographed": "0", "name": "Особняк", "address": "Николопесковский Б. пер., дом 9, строение 1" }, "geometry": { "type": "Point", "coordinates": [ 37.59010188, 55.75050952 ] } },
{ "type": "Feature", "properties": { "lat": "55.75072231", "lon": "37.59008391", "photographed": "0", "name": "Дом, в котором жил и в 1915 г. умер Скрябин Александр Николаевич. В доме - мемориальный музей А.Н.Скрябина", "address": "Николопесковский Б. пер., дом 11, строение 1" }, "geometry": { "type": "Point", "coordinates": [ 37.59008391, 55.75072231 ] } },
{ "type": "Feature", "properties": { "lat": "55.75065138", "lon": "37.58959882", "photographed": "0", "name": "Доходный дом Е.Н.Грушка", "address": "Николопесковский Б. пер., дом 11, строение 2" }, "geometry": { "type": "Point", "coordinates": [ 37.58959882, 55.75065138 ] } },
{ "type": "Feature", "properties": { "lat": "55.75125428", "lon": "37.58977849", "photographed": "0", "name": "Дом, в котором в 1836-1839 гг. жил декабрист М.Ф.Орлов. В эти годы его неоднократно посещал поэт А.С.Пушкин", "address": "Николопесковский Б. пер., дом 15, строение 1" }, "geometry": { "type": "Point", "coordinates": [ 37.58977849, 55.75125428 ] } },
{ "type": "Feature", "properties": { "lat": "55.75063618", "lon": "37.59206919", "photographed": "0", "name": "Городская усадьба Н.П.Михайловой - В.Э.Тальгрен", "address": "Николопесковский М. пер., дом 5, строение 1" }, "geometry": { "type": "Point", "coordinates": [ 37.59206919, 55.75063618 ] } },
{ "type": "Feature", "properties": { "lat": "55.75063618", "lon": "37.59206919", "photographed": "0", "name": "Главный дом", "address": "Николопесковский М. пер., дом 5, строение 1" }, "geometry": { "type": "Point", "coordinates": [ 37.59206919, 55.75063618 ] } },
{ "type": "Feature", "properties": { "lat": "", "lon": "", "photographed": "0", "name": "Ограда", "address": "" }, "geometry": { "type": "Point", "coordinates": [ 0.0, 0.0 ] } },
{ "type": "Feature", "properties": { "lat": "55.75120869", "lon": "37.58252908", "photographed": "0", "name": "Главный дом городской усадьбы", "address": "Новинский бульв., дом 5, строение 1" }, "geometry": { "type": "Point", "coordinates": [ 37.58252908, 55.75120869 ] } },
{ "type": "Feature", "properties": { "lat": "55.75340744", "lon": "37.58206196", "photographed": "0", "name": "Доходный жилой дом", "address": "Новинский бульв., дом 11" }, "geometry": { "type": "Point", "coordinates": [ 37.58206196, 55.75340744 ] } },
{ "type": "Feature", "properties": { "lat": "55.75410656", "lon": "37.58221467", "photographed": "0", "name": "Жилой дом (Дом Оболенского)", "address": "Новинский бульв., дом 11А, строение 1" }, "geometry": { "type": "Point", "coordinates": [ 37.58221467, 55.75410656 ] } },
{ "type": "Feature", "properties": { "lat": "55.75510455", "lon": "37.58290637", "photographed": "0", "name": "Дом, в котором жил Грибоедов Александр Сергеевич", "address": "Новинский бульв., дом 17" }, "geometry": { "type": "Point", "coordinates": [ 37.58290637, 55.75510455 ] } },
{ "type": "Feature", "properties": { "lat": "55.75525653", "lon": "37.58466707", "photographed": "0", "name": "Квартира, в которой в 1954-1956 гг. жил художник П.П.Кончаловский", "address": "Новинский бульв., дом 18, строение 1" }, "geometry": { "type": "Point", "coordinates": [ 37.58466707, 55.75525653 ] } },
{ "type": "Feature", "properties": { "lat": "55.75260699", "lon": "37.59804299", "photographed": "0", "name": "Особняк Э.М. Федотовой", "address": "Новый Арбат ул., дом 5" }, "geometry": { "type": "Point", "coordinates": [ 37.59804299, 55.75260699 ] } },
{ "type": "Feature", "properties": { "lat": "55.75235368", "lon": "37.59745908", "photographed": "0", "name": "Частная клиника доктора П.Д. Соловово", "address": "Новый Арбат ул., дом 7, строение 1" }, "geometry": { "type": "Point", "coordinates": [ 37.59745908, 55.75235368 ] } },
{ "type": "Feature", "properties": { "lat": "55.75214089", "lon": "37.59241055", "photographed": "0", "name": "Русский лес - мозаичное панно в интерьере кафе \"Печора\"", "address": "Новый Арбат ул., дом 15" }, "geometry": { "type": "Point", "coordinates": [ 37.59241055, 55.75214089 ] } },
{ "type": "Feature", "properties": { "lat": "55.75308321", "lon": "37.58761355", "photographed": "0", "name": "Мозаичное панно на фасаде кинотеатра \"Октябрь\"", "address": "Новый Арбат ул., дом 24" }, "geometry": { "type": "Point", "coordinates": [ 37.58761355, 55.75308321 ] } },
{ "type": "Feature", "properties": { "lat": "55.75131001", "lon": "37.57582765", "photographed": "0", "name": "Жилой дом", "address": "Новый Арбат ул., дом 31\/12" }, "geometry": { "type": "Point", "coordinates": [ 37.57582765, 55.75131001 ] } },
{ "type": "Feature", "properties": { "lat": "55.74724149", "lon": "37.58805372", "photographed": "0", "name": "Первое Городское Анастасьинское училище рукоделия (Городская рукодельная школа имени великой княжны Анастасии Николаевны)", "address": "Плотников пер., дом 19\/38, строение 1" }, "geometry": { "type": "Point", "coordinates": [ 37.58805372, 55.74724149 ] } },
{ "type": "Feature", "properties": { "lat": "55.75372154", "lon": "37.59628229", "photographed": "0", "name": "Городская усадьба Грачевых", "address": "Поварская ул., дом 7, строение 1" }, "geometry": { "type": "Point", "coordinates": [ 37.59628229, 55.75372154 ] } },
{ "type": "Feature", "properties": { "lat": "55.75358475", "lon": "37.59537499", "photographed": "0", "name": "Городская усадьба А.А.Казакова - Е.Д.Дункер", "address": "Поварская ул., дом 9, строение 1" }, "geometry": { "type": "Point", "coordinates": [ 37.59537499, 55.75358475 ] } },
{ "type": "Feature", "properties": { "lat": "55.75358475", "lon": "37.59537499", "photographed": "0", "name": "Главный дом с хозяйственным флигелем", "address": "Поварская ул., дом 9, строение 1" }, "geometry": { "type": "Point", "coordinates": [ 37.59537499, 55.75358475 ] } },
{ "type": "Feature", "properties": { "lat": "55.75358475", "lon": "37.59537499", "photographed": "0", "name": "Служебная постройка (гараж)", "address": "Поварская ул., дом 9, строение 2" }, "geometry": { "type": "Point", "coordinates": [ 37.59537499, 55.75358475 ] } },
{ "type": "Feature", "properties": { "lat": "55.7540255", "lon": "37.59429701", "photographed": "0", "name": "Главный дом городской усадьбы XVIII-XIX вв.", "address": "Поварская ул., дом 11, строение 1" }, "geometry": { "type": "Point", "coordinates": [ 37.59429701, 55.7540255 ] } },
{ "type": "Feature", "properties": { "lat": "", "lon": "", "photographed": "0", "name": "Комплекс зданий Верховного Суда РФ. Главный дом городской усадьбы", "address": "Поварская ул., дом 13, строение 1" }, "geometry": { "type": "Point", "coordinates": [ 0.0, 0.0 ] } },
{ "type": "Feature", "properties": { "lat": "55.7545473", "lon": "37.59531211", "photographed": "0", "name": "Доходный дом И.С.Кальмеера", "address": "Поварская ул., дом 20" }, "geometry": { "type": "Point", "coordinates": [ 37.59531211, 55.7545473 ] } },
{ "type": "Feature", "properties": { "lat": "55.75509442", "lon": "37.59074867", "photographed": "0", "name": "Городская усадьба А.Н. Носенкова - В.А. Балина", "address": "Поварская ул., дом 21\/17, строение 1" }, "geometry": { "type": "Point", "coordinates": [ 37.59074867, 55.75509442 ] } },
{ "type": "Feature", "properties": { "lat": "55.75509442", "lon": "37.59074867", "photographed": "0", "name": "Главный дом", "address": "Поварская ул., дом 21\/17, строение 1" }, "geometry": { "type": "Point", "coordinates": [ 37.59074867, 55.75509442 ] } },
{ "type": "Feature", "properties": { "lat": "55.75334665", "lon": "37.59710874", "photographed": "0", "name": "Доходный дом", "address": "Поварская ул., д.21\/17, стр.1-2" }, "geometry": { "type": "Point", "coordinates": [ 37.59710874, 55.75334665 ] } },
{ "type": "Feature", "properties": { "lat": "55.75334665", "lon": "37.59710874", "photographed": "0", "name": "Службы", "address": "Поварская ул., д.21\/17, стр.1-2" }, "geometry": { "type": "Point", "coordinates": [ 37.59710874, 55.75334665 ] } },
{ "type": "Feature", "properties": { "lat": "55.75546423", "lon": "37.58940119", "photographed": "0", "name": "Усадьба Гагарина на Поварской", "address": "Поварская ул., дом 23, строение 4" }, "geometry": { "type": "Point", "coordinates": [ 37.58940119, 55.75546423 ] } },
{ "type": "Feature", "properties": { "lat": "", "lon": "", "photographed": "0", "name": "Ограда с двумя воротами", "address": "" }, "geometry": { "type": "Point", "coordinates": [ 0.0, 0.0 ] } },
{ "type": "Feature", "properties": { "lat": "55.75472461", "lon": "37.5941982", "photographed": "0", "name": "Особняк М.С.Саарбекова", "address": "Поварская ул., дом 24, строение 1" }, "geometry": { "type": "Point", "coordinates": [ 37.5941982, 55.75472461 ] } },
{ "type": "Feature", "properties": { "lat": "", "lon": "", "photographed": "0", "name": "Памятник А.М.Горькому", "address": "Поварская ул., дом 25а" }, "geometry": { "type": "Point", "coordinates": [ 0.0, 0.0 ] } },
{ "type": "Feature", "properties": { "lat": "55.75493738", "lon": "37.59368616", "photographed": "0", "name": "Доходный дом И.С.Баскакова", "address": "Поварская ул., дом 26" }, "geometry": { "type": "Point", "coordinates": [ 37.59368616, 55.75493738 ] } },
{ "type": "Feature", "properties": { "lat": "55.75494751", "lon": "37.59332683", "photographed": "0", "name": "Особняк", "address": "Поварская ул., дом 28, строение 3" }, "geometry": { "type": "Point", "coordinates": [ 37.59332683, 55.75494751 ] } },
{ "type": "Feature", "properties": { "lat": "55.75556554", "lon": "37.59178173", "photographed": "0", "name": "Квартира музыканта и педагога Е.Ф.Гнесиной, в которой она жила и работала в 1948-1967 гг.  (в здании Российской Академии музыки)", "address": "Поварская ул., дом 30-36, строение 1" }, "geometry": { "type": "Point", "coordinates": [ 37.59178173, 55.75556554 ] } },
{ "type": "Feature", "properties": { "lat": "55.75654324", "lon": "37.58709252", "photographed": "0", "name": "Городская усадьба. Флигель", "address": "Поварская ул., дом 31\/29" }, "geometry": { "type": "Point", "coordinates": [ 37.58709252, 55.75654324 ] } },
{ "type": "Feature", "properties": { "lat": "55.75381779", "lon": "37.59111697", "photographed": "0", "name": "Городская усадьба М.Н. Орлова –  А.Ю. Долгорукова –  А.Т. Назаровой", "address": "Ржевский Б. пер., дом 5" }, "geometry": { "type": "Point", "coordinates": [ 37.59111697, 55.75381779 ] } },
{ "type": "Feature", "properties": { "lat": "55.7545321", "lon": "37.59172783", "photographed": "0", "name": "Дом жилой (\"Дом военных\")", "address": "Ржевский Б. пер., дом 11" }, "geometry": { "type": "Point", "coordinates": [ 37.59172783, 55.7545321 ] } },
{ "type": "Feature", "properties": { "lat": "55.75294136", "lon": "37.60905633", "photographed": "0", "name": "Здание Кремлевской больницы", "address": "Романов пер., дом 2\/6, строение 1" }, "geometry": { "type": "Point", "coordinates": [ 37.60905633, 55.75294136 ] } },
{ "type": "Feature", "properties": { "lat": "55.75346317", "lon": "37.6087509", "photographed": "0", "name": "Дом, в котором 19 апреля 1919 г. В.И.Ленин выступил с речью на собрании, посвященном выпуску Красных командиров Академии Генерального штаба Красной Армии", "address": "Романов пер., дом 2\/6, строение 3" }, "geometry": { "type": "Point", "coordinates": [ 37.6087509, 55.75346317 ] } },
{ "type": "Feature", "properties": { "lat": "55.75347837", "lon": "37.60765496", "photographed": "0", "name": "Ансамбль доходных домов графа А.Д.Шереметева (с 1920-х гг. - \"5-й Дом Советов\")", "address": "Романов пер., дом 3, строение 1" }, "geometry": { "type": "Point", "coordinates": [ 37.60765496, 55.75347837 ] } },
{ "type": "Feature", "properties": { "lat": "55.75347837", "lon": "37.60765496", "photographed": "0", "name": "Дом доходный", "address": "Романов пер., дом 3, строение 1" }, "geometry": { "type": "Point", "coordinates": [ 37.60765496, 55.75347837 ] } },
{ "type": "Feature", "properties": { "lat": "", "lon": "", "photographed": "0", "name": "Дом доходный", "address": "" }, "geometry": { "type": "Point", "coordinates": [ 0.0, 0.0 ] } },
{ "type": "Feature", "properties": { "lat": "55.75420281", "lon": "37.60805022", "photographed": "0", "name": "Дом доходный", "address": "Романов пер., дом 3, строение 7" }, "geometry": { "type": "Point", "coordinates": [ 37.60805022, 55.75420281 ] } },
{ "type": "Feature", "properties": { "lat": "55.75385326", "lon": "37.6073136", "photographed": "0", "name": "Дом доходный", "address": "Романов пер., дом 3, строение 6" }, "geometry": { "type": "Point", "coordinates": [ 37.6073136, 55.75385326 ] } },
{ "type": "Feature", "properties": { "lat": "55.75347837", "lon": "37.60765496", "photographed": "0", "name": "Ограда с воротами и калиткой", "address": "Романов пер., дом 3, строение 1" }, "geometry": { "type": "Point", "coordinates": [ 37.60765496, 55.75347837 ] } },
{ "type": "Feature", "properties": { "lat": "", "lon": "", "photographed": "0", "name": "Фонтан и чаша", "address": "Романов пер., д. 3 (чаша)" }, "geometry": { "type": "Point", "coordinates": [ 0.0, 0.0 ] } },
{ "type": "Feature", "properties": { "lat": "55.75447638", "lon": "37.60944261", "photographed": "0", "name": "Квартира, в которой с 1887 г. жил и в 1920 г. умер Тимирязев Климент Аркадьевич.  В доме - мемориальный музей К.А.Тимирязева", "address": "Романов пер., дом 4, кв.29" }, "geometry": { "type": "Point", "coordinates": [ 37.60944261, 55.75447638 ] } },
{ "type": "Feature", "properties": { "lat": "55.75494751", "lon": "37.60882277", "photographed": "0", "name": "Флигель городской усадьбы", "address": "Романов пер., дом 7" }, "geometry": { "type": "Point", "coordinates": [ 37.60882277, 55.75494751 ] } },
{ "type": "Feature", "properties": { "lat": "55.75181158", "lon": "37.59397362", "photographed": "0", "name": "Хирургическая лечебница доктора медицины С.М.Руднева", "address": "Серебряный пер., дом 4, строение 1" }, "geometry": { "type": "Point", "coordinates": [ 37.59397362, 55.75181158 ] } },
{ "type": "Feature", "properties": { "lat": "55.74732256", "lon": "37.59859096", "photographed": "0", "name": "Дом кооперативного жилищного товарищества \"Научные работники\"", "address": "Сивцев Вражек пер., дом 4" }, "geometry": { "type": "Point", "coordinates": [ 37.59859096, 55.74732256 ] } },
{ "type": "Feature", "properties": { "lat": "55.7474543", "lon": "37.58999408", "photographed": "0", "name": "Дом, в котором в конце 1840-х гг. жил Аксаков Сергей Тимофеевич. Здесь у него бывали Н.В.Гоголь, М.С.Щепкин и др. Жилой дом, кон. XVIII в.", "address": "Сивцев Вражек пер., дом 30, строение 1" }, "geometry": { "type": "Point", "coordinates": [ 37.58999408, 55.7474543 ] } },
{ "type": "Feature", "properties": { "lat": "", "lon": "", "photographed": "0", "name": "Городская усадьба А.Д.Негуневой - Е.А.Ивановой - П.Н.Иванова", "address": "Сивцев Вражек пер., дом 34, строение 1" }, "geometry": { "type": "Point", "coordinates": [ 0.0, 0.0 ] } },
{ "type": "Feature", "properties": { "lat": "55.7472719", "lon": "37.58905983", "photographed": "0", "name": "Главный дом", "address": "Сивцев Вражек пер., дом 34, строение 1" }, "geometry": { "type": "Point", "coordinates": [ 37.58905983, 55.7472719 ] } },
{ "type": "Feature", "properties": { "lat": "", "lon": "", "photographed": "0", "name": "Ограда", "address": "" }, "geometry": { "type": "Point", "coordinates": [ 0.0, 0.0 ] } },
{ "type": "Feature", "properties": { "lat": "55.74692228", "lon": "37.58699371", "photographed": "0", "name": "Садовый павильон с садом", "address": "Сивцев Вражек пер., дом 42, строение 5" }, "geometry": { "type": "Point", "coordinates": [ 37.58699371, 55.74692228 ] } },
{ "type": "Feature", "properties": { "lat": "55.74652705", "lon": "37.58625709", "photographed": "0", "name": "Доходный дом О.С.Петровской", "address": "Сивцев Вражек пер., дом 44\/28" }, "geometry": { "type": "Point", "coordinates": [ 37.58625709, 55.74652705 ] } },
{ "type": "Feature", "properties": { "lat": "", "lon": "", "photographed": "0", "name": "Наземный вестибюль", "address": "" }, "geometry": { "type": "Point", "coordinates": [ 0.0, 0.0 ] } },
{ "type": "Feature", "properties": { "lat": "", "lon": "", "photographed": "0", "name": "Перронный зал", "address": "" }, "geometry": { "type": "Point", "coordinates": [ 0.0, 0.0 ] } },
{ "type": "Feature", "properties": { "lat": "55.74918207", "lon": "37.58379571", "photographed": "0", "name": "Городская усадьба", "address": "Смоленская пл., дом 6" }, "geometry": { "type": "Point", "coordinates": [ 37.58379571, 55.74918207 ] } },
{ "type": "Feature", "properties": { "lat": "55.74918207", "lon": "37.58379571", "photographed": "0", "name": "Дом жилой", "address": "Смоленская пл., дом 6, строение 3" }, "geometry": { "type": "Point", "coordinates": [ 37.58379571, 55.74918207 ] } },
{ "type": "Feature", "properties": { "lat": "55.74923781", "lon": "37.58328367", "photographed": "0", "name": "Дом жилой с лавками", "address": "Смоленская пл., дом 6, строение 1" }, "geometry": { "type": "Point", "coordinates": [ 37.58328367, 55.74923781 ] } },
{ "type": "Feature", "properties": { "lat": "55.74865514", "lon": "37.58352621", "photographed": "0", "name": "Дом", "address": "Смоленская пл., дом 6" }, "geometry": { "type": "Point", "coordinates": [ 37.58352621, 55.74865514 ] } },
{ "type": "Feature", "properties": { "lat": "55.74982047", "lon": "37.58330163", "photographed": "0", "name": "Дом", "address": "Смоленская пл., д.8\/12\/1, стр.1" }, "geometry": { "type": "Point", "coordinates": [ 37.58330163, 55.74982047 ] } },
{ "type": "Feature", "properties": { "lat": "55.74941007", "lon": "37.58212484", "photographed": "0", "name": "Жилой дом", "address": "Смоленская пл., дом 13\/21" }, "geometry": { "type": "Point", "coordinates": [ 37.58212484, 55.74941007 ] } },
{ "type": "Feature", "properties": { "lat": "55.74941007", "lon": "37.58212484", "photographed": "0", "name": "наземный вестибюль", "address": "Смоленская пл., дом 13\/21" }, "geometry": { "type": "Point", "coordinates": [ 37.58212484, 55.74941007 ] } },
{ "type": "Feature", "properties": { "lat": "55.74941007", "lon": "37.58212484", "photographed": "0", "name": "перронный зал", "address": "Смоленская пл., дом 13\/21" }, "geometry": { "type": "Point", "coordinates": [ 37.58212484, 55.74941007 ] } },
{ "type": "Feature", "properties": { "lat": "55.74601528", "lon": "37.57806445", "photographed": "0", "name": "Квартира, в которой в 1962-1968 гг. жил кинорежиссер И.А.Пырьев", "address": "Смоленская ул., дом 10" }, "geometry": { "type": "Point", "coordinates": [ 37.57806445, 55.74601528 ] } },
{ "type": "Feature", "properties": { "lat": "55.74466235", "lon": "37.58459521", "photographed": "0", "name": "Дом Несвицкой", "address": "Смоленская-Сенная пл., дом 30" }, "geometry": { "type": "Point", "coordinates": [ 37.58459521, 55.74466235 ] } },
{ "type": "Feature", "properties": { "lat": "55.74931887", "lon": "37.58011261", "photographed": "0", "name": "Церковь Николая Чудотворца на Щепах - Дом причта", "address": "Смоленский 1-й пер., дом 20, строение 3" }, "geometry": { "type": "Point", "coordinates": [ 37.58011261, 55.74931887 ] } },
{ "type": "Feature", "properties": { "lat": "55.74702362", "lon": "37.58152297", "photographed": "0", "name": "Доходный дом Орловых", "address": "Смоленский 2-й пер., дом 1\/4" }, "geometry": { "type": "Point", "coordinates": [ 37.58152297, 55.74702362 ] } },
{ "type": "Feature", "properties": { "lat": "", "lon": "", "photographed": "0", "name": "Ворота дома жилого Щепочкиной А.Г.", "address": "Спасопесковский пер., 6" }, "geometry": { "type": "Point", "coordinates": [ 0.0, 0.0 ] } },
{ "type": "Feature", "properties": { "lat": "55.75017513", "lon": "37.58832321", "photographed": "0", "name": "Городская усадьба А.Г. Щепочкиной - Н.А. Львова", "address": "Спасопесковский пер., дом 8, строение 1" }, "geometry": { "type": "Point", "coordinates": [ 37.58832321, 55.75017513 ] } },
{ "type": "Feature", "properties": { "lat": "55.75017513", "lon": "37.58832321", "photographed": "0", "name": "Главный дом", "address": "Спасопесковский пер., дом 8, строение 1" }, "geometry": { "type": "Point", "coordinates": [ 37.58832321, 55.75017513 ] } },
{ "type": "Feature", "properties": { "lat": "55.75036259", "lon": "37.58808067", "photographed": "0", "name": "Флигель", "address": "Спасопесковский пер., дом 8, строение 2" }, "geometry": { "type": "Point", "coordinates": [ 37.58808067, 55.75036259 ] } },
{ "type": "Feature", "properties": { "lat": "55.75078817", "lon": "37.58847593", "photographed": "0", "name": "Ограда", "address": "Спасопесковский пер., дом 10, строение 1" }, "geometry": { "type": "Point", "coordinates": [ 37.58847593, 55.75078817 ] } },
{ "type": "Feature", "properties": { "lat": "55.75078817", "lon": "37.58847593", "photographed": "0", "name": "Особняк Второва", "address": "Спасопесковский пер., дом 10, строение 1" }, "geometry": { "type": "Point", "coordinates": [ 37.58847593, 55.75078817 ] } },
{ "type": "Feature", "properties": { "lat": "55.75086417", "lon": "37.58896102", "photographed": "0", "name": "Служебный флигель", "address": "Спасопесковский пер., дом 10, строение 2" }, "geometry": { "type": "Point", "coordinates": [ 37.58896102, 55.75086417 ] } },
{ "type": "Feature", "properties": { "lat": "55.75070204", "lon": "37.60619969", "photographed": "0", "name": "Главный дом с палатами", "address": "Староваганьковский пер., дом 15, строение 3" }, "geometry": { "type": "Point", "coordinates": [ 37.60619969, 55.75070204 ] } },
{ "type": "Feature", "properties": { "lat": "55.75091483", "lon": "37.60577748", "photographed": "0", "name": "Флигель", "address": "Староваганьковский пер., дом 15, строение 4" }, "geometry": { "type": "Point", "coordinates": [ 37.60577748, 55.75091483 ] } },
{ "type": "Feature", "properties": { "lat": "55.75092497", "lon": "37.60677461", "photographed": "0", "name": "Дом, в котором жил член Северного  общества Голицын Валерьян Михайлович", "address": "Староваганьковский пер., дом 17, строение 3" }, "geometry": { "type": "Point", "coordinates": [ 37.60677461, 55.75092497 ] } },
{ "type": "Feature", "properties": { "lat": "55.75163426", "lon": "37.60746631", "photographed": "0", "name": "Городская усадьба купца Василия Семенова", "address": "Староваганьковский пер., дом 21, строение 1" }, "geometry": { "type": "Point", "coordinates": [ 37.60746631, 55.75163426 ] } },
{ "type": "Feature", "properties": { "lat": "55.75163426", "lon": "37.60746631", "photographed": "0", "name": "Двухэтажный флигель", "address": "Староваганьковский пер., дом 21, строение 1" }, "geometry": { "type": "Point", "coordinates": [ 37.60746631, 55.75163426 ] } },
{ "type": "Feature", "properties": { "lat": "55.7484322", "lon": "37.59444972", "photographed": "0", "name": "Дом, в котором в 1920-1931 гг. жили и работали писатели литературного объединения \"Кузница\": А.С.Новиков-Прибой, А.С.Неверов и др. С 1944 г. - \"Дом моряков\" (для высших офицеров ВМФ), 1901 г., 1940-е гг., арх. Е.И.Опуховский", "address": "Староконюшенный пер., дом 33" }, "geometry": { "type": "Point", "coordinates": [ 37.59444972, 55.7484322 ] } },
{ "type": "Feature", "properties": { "lat": "55.75413189", "lon": "37.58640082", "photographed": "0", "name": "Главный дом", "address": "Трубниковский пер., дом 15, строение 1" }, "geometry": { "type": "Point", "coordinates": [ 37.58640082, 55.75413189 ] } },
{ "type": "Feature", "properties": { "lat": "55.75473474", "lon": "37.58659845", "photographed": "0", "name": "Прясло ограды", "address": "Трубниковский пер., д.17" }, "geometry": { "type": "Point", "coordinates": [ 37.58659845, 55.75473474 ] } },
{ "type": "Feature", "properties": { "lat": "55.75473474", "lon": "37.58659845", "photographed": "0", "name": "Дом, связанный с жизнью и деятельностью  художника-пейзажиста и коллекционера И.С.Остроухова", "address": "Трубниковский пер., дом 17, строение 1" }, "geometry": { "type": "Point", "coordinates": [ 37.58659845, 55.75473474 ] } },
{ "type": "Feature", "properties": { "lat": "55.75498297", "lon": "37.58630201", "photographed": "0", "name": "Дом Удельного Ведомства с винными погребами", "address": "Трубниковский пер., дом 19" }, "geometry": { "type": "Point", "coordinates": [ 37.58630201, 55.75498297 ] } },
{ "type": "Feature", "properties": { "lat": "55.75498297", "lon": "37.58630201", "photographed": "0", "name": "Помещения подвала и полуподвала дома № 19 (Бывшие \"Голицынские погреба\")", "address": "Трубниковский пер., дом 19" }, "geometry": { "type": "Point", "coordinates": [ 37.58630201, 55.75498297 ] } },
{ "type": "Feature", "properties": { "lat": "55.75571752", "lon": "37.58695778", "photographed": "0", "name": "Жилой дом В.Ф.Добровой", "address": "Трубниковский пер., дом 21, строение 2" }, "geometry": { "type": "Point", "coordinates": [ 37.58695778, 55.75571752 ] } },
{ "type": "Feature", "properties": { "lat": "55.75435986", "lon": "37.58694879", "photographed": "0", "name": "Доходный дом", "address": "Трубниковский пер., дом 24, строение 1" }, "geometry": { "type": "Point", "coordinates": [ 37.58694879, 55.75435986 ] } },
{ "type": "Feature", "properties": { "lat": "55.75588469", "lon": "37.58744287", "photographed": "0", "name": "Жилой дом Д.А.Ровинского", "address": "Трубниковский пер., дом 32" }, "geometry": { "type": "Point", "coordinates": [ 37.58744287, 55.75588469 ] } },
{ "type": "Feature", "properties": { "lat": "55.74957727", "lon": "37.59826756", "photographed": "0", "name": "Ансамбль студенческого общежития им. С.В.Лепешкина Императорского Московского Университета", "address": "Филипповский пер., дом 11, строение 2" }, "geometry": { "type": "Point", "coordinates": [ 37.59826756, 55.74957727 ] } },
{ "type": "Feature", "properties": { "lat": "55.74933914", "lon": "37.59821367", "photographed": "0", "name": "Общежитие", "address": "Филипповский пер., дом 11, строение 1" }, "geometry": { "type": "Point", "coordinates": [ 37.59821367, 55.74933914 ] } },
{ "type": "Feature", "properties": { "lat": "55.74957727", "lon": "37.59826756", "photographed": "0", "name": "Столовая", "address": "Филипповский пер., дом 11, строение 2" }, "geometry": { "type": "Point", "coordinates": [ 37.59826756, 55.74957727 ] } },
{ "type": "Feature", "properties": { "lat": "55.78069912", "lon": "37.60453781", "photographed": "0", "name": "Главное здание Сущевской части", "address": "Селезневская ул., дом 11, строение 1" }, "geometry": { "type": "Point", "coordinates": [ 37.60453781, 55.78069912 ] } },
{ "type": "Feature", "properties": { "lat": "55.75054498", "lon": "37.59904012", "photographed": "0", "name": "Представительство Туркменской республики", "address": "Филипповский пер., дом 22, строение 1" }, "geometry": { "type": "Point", "coordinates": [ 37.59904012, 55.75054498 ] } },
{ "type": "Feature", "properties": { "lat": "55.75502856", "lon": "37.59497075", "photographed": "0", "name": "Главный дом", "address": "Хлебный пер., дом 15, строение 1" }, "geometry": { "type": "Point", "coordinates": [ 37.59497075, 55.75502856 ] } },
{ "type": "Feature", "properties": { "lat": "", "lon": "", "photographed": "0", "name": "Ограда", "address": "" }, "geometry": { "type": "Point", "coordinates": [ 0.0, 0.0 ] } },
{ "type": "Feature", "properties": { "lat": "55.75535278", "lon": "37.59396463", "photographed": "0", "name": "Доходный дом И.С. Баскакова", "address": "Хлебный пер., дом 19" }, "geometry": { "type": "Point", "coordinates": [ 37.59396463, 55.75535278 ] } },
{ "type": "Feature", "properties": { "lat": "55.75554021", "lon": "37.59319208", "photographed": "0", "name": "Главный дом", "address": "Хлебный пер., дом 21, строение 1" }, "geometry": { "type": "Point", "coordinates": [ 37.59319208, 55.75554021 ] } },
{ "type": "Feature", "properties": { "lat": "", "lon": "", "photographed": "0", "name": "Ограда с воротами", "address": "Хлебный пер., Нет адреса БТИ" }, "geometry": { "type": "Point", "coordinates": [ 0.0, 0.0 ] } },
{ "type": "Feature", "properties": { "lat": "", "lon": "", "photographed": "0", "name": "Служебный корпус", "address": "Хлебный пер., нет адреса БТИ" }, "geometry": { "type": "Point", "coordinates": [ 0.0, 0.0 ] } },
{ "type": "Feature", "properties": { "lat": "", "lon": "", "photographed": "0", "name": "Флигель", "address": "Хлебный пер., нет адреса БТИ" }, "geometry": { "type": "Point", "coordinates": [ 0.0, 0.0 ] } },
{ "type": "Feature", "properties": { "lat": "55.74657772", "lon": "37.57973532", "photographed": "0", "name": "Квартира, в которой в 1921-1945 гг. жил писатель В.В.Вересаев", "address": "Шубинский пер., дом 2\/3" }, "geometry": { "type": "Point", "coordinates": [ 37.57973532, 55.74657772 ] } },
{ "type": "Feature", "properties": { "lat": "55.76101093", "lon": "37.63459543", "photographed": "0", "name": "Доходный дом В.К. и П.К.Микини", "address": "Армянский пер., дом 1\/8, строение 1" }, "geometry": { "type": "Point", "coordinates": [ 37.63459543, 55.76101093 ] } },
{ "type": "Feature", "properties": { "lat": "55.76004854", "lon": "37.63498171", "photographed": "0", "name": "Дом Лазаревых", "address": "Армянский пер., дом 2, строение 2" }, "geometry": { "type": "Point", "coordinates": [ 37.63498171, 55.76004854 ] } },
{ "type": "Feature", "properties": { "lat": "55.76004854", "lon": "37.63498171", "photographed": "0", "name": "Боковой флигель северный", "address": "Армянский пер., дом 2, строение 2" }, "geometry": { "type": "Point", "coordinates": [ 37.63498171, 55.76004854 ] } },
{ "type": "Feature", "properties": { "lat": "55.76004854", "lon": "37.63498171", "photographed": "0", "name": "Боковой флигель южный", "address": "Армянский пер., дом 2, строение 2" }, "geometry": { "type": "Point", "coordinates": [ 37.63498171, 55.76004854 ] } },
{ "type": "Feature", "properties": { "lat": "55.76004854", "lon": "37.63498171", "photographed": "0", "name": "Главный дом", "address": "Армянский пер., дом 2, строение 2" }, "geometry": { "type": "Point", "coordinates": [ 37.63498171, 55.76004854 ] } },
{ "type": "Feature", "properties": { "lat": "", "lon": "", "photographed": "0", "name": "Ограда с воротами", "address": "" }, "geometry": { "type": "Point", "coordinates": [ 0.0, 0.0 ] } },
{ "type": "Feature", "properties": { "lat": "", "lon": "", "photographed": "0", "name": "Парадный двор с обелиском", "address": "" }, "geometry": { "type": "Point", "coordinates": [ 0.0, 0.0 ] } },
{ "type": "Feature", "properties": { "lat": "55.76067663", "lon": "37.63391272", "photographed": "0", "name": "Службы", "address": "Армянский пер., дом 2, строение 1" }, "geometry": { "type": "Point", "coordinates": [ 37.63391272, 55.76067663 ] } },
{ "type": "Feature", "properties": { "lat": "55.76039298", "lon": "37.6339756", "photographed": "0", "name": "Службы", "address": "Армянский пер., дом 2, строение 4" }, "geometry": { "type": "Point", "coordinates": [ 37.6339756, 55.76039298 ] } },
{ "type": "Feature", "properties": { "lat": "55.76004854", "lon": "37.63498171", "photographed": "0", "name": "Службы", "address": "Армянский пер., дом 2, строение 2" }, "geometry": { "type": "Point", "coordinates": [ 37.63498171, 55.76004854 ] } },
{ "type": "Feature", "properties": { "lat": "", "lon": "", "photographed": "0", "name": "Обелиск в память учредителей Лазаревского института", "address": "Армянский пер., дом 2, строение 2" }, "geometry": { "type": "Point", "coordinates": [ 0.0, 0.0 ] } },
{ "type": "Feature", "properties": { "lat": "55.76004854", "lon": "37.63498171", "photographed": "0", "name": "Здание библиотеки Лазаревского института Восточных языков", "address": "Армянский пер., дом 2, строение 2" }, "geometry": { "type": "Point", "coordinates": [ 37.63498171, 55.76004854 ] } },
{ "type": "Feature", "properties": { "lat": "55.76060065", "lon": "37.63571833", "photographed": "0", "name": "Дома причта Армянской церкви Воздвижения Креста", "address": "Армянский пер., дом 3-5, строение 1А" }, "geometry": { "type": "Point", "coordinates": [ 37.63571833, 55.76060065 ] } },
{ "type": "Feature", "properties": { "lat": "55.76060065", "lon": "37.63571833", "photographed": "0", "name": "Дом причта с аркой и переходом", "address": "Армянский пер., дом 3-5, строение 1А" }, "geometry": { "type": "Point", "coordinates": [ 37.63571833, 55.76060065 ] } },
{ "type": "Feature", "properties": { "lat": "55.76058039", "lon": "37.63542188", "photographed": "0", "name": "Дом причта", "address": "Армянский пер., дом 3-5, строение 2" }, "geometry": { "type": "Point", "coordinates": [ 37.63542188, 55.76058039 ] } },
{ "type": "Feature", "properties": { "lat": "55.76040311", "lon": "37.63592494", "photographed": "0", "name": "Дом причта", "address": "Армянский пер., дом 3-5, строение 3" }, "geometry": { "type": "Point", "coordinates": [ 37.63592494, 55.76040311 ] } },
{ "type": "Feature", "properties": { "lat": "", "lon": "", "photographed": "0", "name": "Пилоны ворот", "address": "нет данных БТИ" }, "geometry": { "type": "Point", "coordinates": [ 0.0, 0.0 ] } },
{ "type": "Feature", "properties": { "lat": "55.76081845", "lon": "37.63551172", "photographed": "0", "name": "Палаты  бояр Милославских", "address": "Армянский пер., дом 3-5, строение 1" }, "geometry": { "type": "Point", "coordinates": [ 37.63551172, 55.76081845 ] } },
{ "type": "Feature", "properties": { "lat": "55.75931914", "lon": "37.63700292", "photographed": "0", "name": "Дом причта храма св. Николая Чудотворца \"что у Столпа\" с церковной лавкой", "address": "Армянский пер., дом 4" }, "geometry": { "type": "Point", "coordinates": [ 37.63700292, 55.75931914 ] } },
{ "type": "Feature", "properties": { "lat": "55.75883793", "lon": "37.63854802", "photographed": "0", "name": "Городская усадьба", "address": "Армянский пер., дом 11, строение 3" }, "geometry": { "type": "Point", "coordinates": [ 37.63854802, 55.75883793 ] } },
{ "type": "Feature", "properties": { "lat": "55.75908107", "lon": "37.63831446", "photographed": "0", "name": "Главный дом", "address": "Армянский пер., дом 11, строение 2" }, "geometry": { "type": "Point", "coordinates": [ 37.63831446, 55.75908107 ] } },
{ "type": "Feature", "properties": { "lat": "55.75883793", "lon": "37.63854802", "photographed": "0", "name": "Ограда с пилонами ворот", "address": "Армянский пер., между д. 11А\/2, стр.1Б и  д.11, стр.3" }, "geometry": { "type": "Point", "coordinates": [ 37.63854802, 55.75883793 ] } },
{ "type": "Feature", "properties": { "lat": "55.76101093", "lon": "37.63459543", "photographed": "0", "name": "Северный флигель", "address": "Армянский пер., дом 11А\/2, строение 1Б" }, "geometry": { "type": "Point", "coordinates": [ 37.63459543, 55.76101093 ] } },
{ "type": "Feature", "properties": { "lat": "55.75883793", "lon": "37.63854802", "photographed": "0", "name": "Южный флигель", "address": "Армянский пер., дом 11, строение 3" }, "geometry": { "type": "Point", "coordinates": [ 37.63854802, 55.75883793 ] } },
{ "type": "Feature", "properties": { "lat": "55.76055507", "lon": "37.638027", "photographed": "0", "name": "Городская усадьба К.Ф.Ратхен - Е.А.Лютер - Саргиных", "address": "Архангельский пер., дом 4, строение 1" }, "geometry": { "type": "Point", "coordinates": [ 37.638027, 55.76055507 ] } },
{ "type": "Feature", "properties": { "lat": "55.76148705", "lon": "37.63731733", "photographed": "0", "name": "Дом, в котором в конце апреля и осенью 1918 г. Ленин Владимир Ильич посетил старого большевика, одного из основателей Латвийской социал-демократической партии П.Г.Дауге", "address": "Архангельский пер., дом 7, строение 1" }, "geometry": { "type": "Point", "coordinates": [ 37.63731733, 55.76148705 ] } },
{ "type": "Feature", "properties": { "lat": "55.76258615", "lon": "37.63963498", "photographed": "0", "name": "Палаты", "address": "Архангельский пер., дом 10, строение 1" }, "geometry": { "type": "Point", "coordinates": [ 37.63963498, 55.76258615 ] } },
{ "type": "Feature", "properties": { "lat": "55.76270771", "lon": "37.63895226", "photographed": "0", "name": "Дом причта церкви Федора Стратилата", "address": "Архангельский пер., дом 15, строение 3" }, "geometry": { "type": "Point", "coordinates": [ 37.63895226, 55.76270771 ] } },
{ "type": "Feature", "properties": { "lat": "55.76316354", "lon": "37.6389343", "photographed": "0", "name": "Церковь Архангела Гавриила", "address": "Архангельский пер., дом 15А, строение 9" }, "geometry": { "type": "Point", "coordinates": [ 37.6389343, 55.76316354 ] } },
{ "type": "Feature", "properties": { "lat": "55.76294069", "lon": "37.63918583", "photographed": "0", "name": "Церковь Федора Тирона", "address": "Архангельский пер., дом 15А, строение 2" }, "geometry": { "type": "Point", "coordinates": [ 37.63918583, 55.76294069 ] } },
{ "type": "Feature", "properties": { "lat": "55.7631129", "lon": "37.63941939", "photographed": "0", "name": "Детский приют Елизаветинского благотворительного общества", "address": "Архангельский пер., дом 17, строение 1" }, "geometry": { "type": "Point", "coordinates": [ 37.63941939, 55.7631129 ] } },
{ "type": "Feature", "properties": { "lat": "55.77320582", "lon": "37.67936747", "photographed": "0", "name": "Жилой дом П.Калашникова - Рахмановых", "address": "Бакунинская ул., дом 2-4" }, "geometry": { "type": "Point", "coordinates": [ 37.67936747, 55.77320582 ] } },
{ "type": "Feature", "properties": { "lat": "55.7818888", "lon": "37.69339017", "photographed": "0", "name": "Ансамбль Покровской мещанской богадельни", "address": "Бакунинская ул., дом 81, строение 6" }, "geometry": { "type": "Point", "coordinates": [ 37.69339017, 55.7818888 ] } },
{ "type": "Feature", "properties": { "lat": "55.78071431", "lon": "37.69436933", "photographed": "0", "name": "Главный корпус с домовой церковью", "address": "Бакунинская ул., дом 81" }, "geometry": { "type": "Point", "coordinates": [ 37.69436933, 55.78071431 ] } },
{ "type": "Feature", "properties": { "lat": "55.78071431", "lon": "37.69436933", "photographed": "0", "name": "Ремесленное училище Александро-Мариинское", "address": "Бакунинская ул., дом 81" }, "geometry": { "type": "Point", "coordinates": [ 37.69436933, 55.78071431 ] } },
{ "type": "Feature", "properties": { "lat": "55.78172174", "lon": "37.6917732", "photographed": "0", "name": "Службы западные", "address": "Бакунинская ул., дом 81, строение 3" }, "geometry": { "type": "Point", "coordinates": [ 37.6917732, 55.78172174 ] } },
{ "type": "Feature", "properties": { "lat": "55.7818888", "lon": "37.69339017", "photographed": "0", "name": "Службы северные", "address": "Бакунинская ул., дом 81, строение 6" }, "geometry": { "type": "Point", "coordinates": [ 37.69339017, 55.7818888 ] } },
{ "type": "Feature", "properties": { "lat": "55.78168124", "lon": "37.69242897", "photographed": "0", "name": "Флигель", "address": "Бакунинская ул., дом 81, строение 4" }, "geometry": { "type": "Point", "coordinates": [ 37.69242897, 55.78168124 ] } },
{ "type": "Feature", "properties": { "lat": "55.78023842", "lon": "37.69585155", "photographed": "0", "name": "Храм", "address": "Бакунинская ул., дом 100, строение 6" }, "geometry": { "type": "Point", "coordinates": [ 37.69585155, 55.78023842 ] } },
{ "type": "Feature", "properties": { "lat": "55.75940525", "lon": "37.6511424", "photographed": "0", "name": "Усадьба", "address": "Барашевский пер., дом 12" }, "geometry": { "type": "Point", "coordinates": [ 37.6511424, 55.75940525 ] } },
{ "type": "Feature", "properties": { "lat": "55.75940525", "lon": "37.6511424", "photographed": "0", "name": "Службы", "address": "Барашевский пер., дом 12" }, "geometry": { "type": "Point", "coordinates": [ 37.6511424, 55.75940525 ] } },
{ "type": "Feature", "properties": { "lat": "55.76803055", "lon": "37.65195987", "photographed": "0", "name": "Министерство путей сообщения", "address": "Басманная Нов. ул., дом 2\/1, строение 1" }, "geometry": { "type": "Point", "coordinates": [ 37.65195987, 55.76803055 ] } },
{ "type": "Feature", "properties": { "lat": "55.76891677", "lon": "37.65446617", "photographed": "0", "name": "Городская усадьба", "address": "Басманная Нов. ул., дом 4-6, строение 11" }, "geometry": { "type": "Point", "coordinates": [ 37.65446617, 55.76891677 ] } },
{ "type": "Feature", "properties": { "lat": "55.76899274", "lon": "37.65496923", "photographed": "0", "name": "Восточный дворовый флигель", "address": "Басманная Нов. ул., дом 4-6, строение 10" }, "geometry": { "type": "Point", "coordinates": [ 37.65496923, 55.76899274 ] } },
{ "type": "Feature", "properties": { "lat": "55.76891677", "lon": "37.65446617", "photographed": "0", "name": "Западный дворовый флигель", "address": "Басманная Нов. ул., дом 4-6, строение 11" }, "geometry": { "type": "Point", "coordinates": [ 37.65446617, 55.76891677 ] } },
{ "type": "Feature", "properties": { "lat": "", "lon": "", "photographed": "0", "name": "Ограда", "address": "Басманная Нов. ул., 4 (ограда)" }, "geometry": { "type": "Point", "coordinates": [ 0.0, 0.0 ] } },
{ "type": "Feature", "properties": { "lat": "55.76936241", "lon": "37.65448414", "photographed": "0", "name": "Городская усадьба", "address": "Басманная Нов. ул., дом 4-6, строение 2" }, "geometry": { "type": "Point", "coordinates": [ 37.65448414, 55.76936241 ] } },
{ "type": "Feature", "properties": { "lat": "55.76918517", "lon": "37.652957", "photographed": "0", "name": "Флигель", "address": "Басманная Нов. ул., дом 4-6, строение 16" }, "geometry": { "type": "Point", "coordinates": [ 37.652957, 55.76918517 ] } },
{ "type": "Feature", "properties": { "lat": "55.76936241", "lon": "37.65448414", "photographed": "0", "name": "Дом Куракина с интерьерами", "address": "Басманная Нов. ул., дом 4-6, строение 2" }, "geometry": { "type": "Point", "coordinates": [ 37.65448414, 55.76936241 ] } },
{ "type": "Feature", "properties": { "lat": "55.76866357", "lon": "37.65621788", "photographed": "0", "name": "Доходный дом Московского Басманного товарищества", "address": "Басманная Нов. ул., дом 10, строение 1" }, "geometry": { "type": "Point", "coordinates": [ 37.65621788, 55.76866357 ] } },
{ "type": "Feature", "properties": { "lat": "55.76913959", "lon": "37.65850859", "photographed": "0", "name": "Городская усадьба", "address": "Басманная Нов. ул., дом 14, строение 1" }, "geometry": { "type": "Point", "coordinates": [ 37.65850859, 55.76913959 ] } },
{ "type": "Feature", "properties": { "lat": "55.76913959", "lon": "37.65850859", "photographed": "0", "name": "Главный дом", "address": "Басманная Нов. ул., дом 14, строение 1" }, "geometry": { "type": "Point", "coordinates": [ 37.65850859, 55.76913959 ] } },
{ "type": "Feature", "properties": { "lat": "55.76913959", "lon": "37.65850859", "photographed": "0", "name": "Ограда с воротами", "address": "Басманная Нов. ул., дом 14, строение 1" }, "geometry": { "type": "Point", "coordinates": [ 37.65850859, 55.76913959 ] } },
{ "type": "Feature", "properties": { "lat": "55.76913959", "lon": "37.65850859", "photographed": "0", "name": "Фонтан", "address": "Басманная Нов. ул., дом 14, строение 1" }, "geometry": { "type": "Point", "coordinates": [ 37.65850859, 55.76913959 ] } },
{ "type": "Feature", "properties": { "lat": "55.76922568", "lon": "37.66360204", "photographed": "0", "name": "Главный дом", "address": "Басманная Нов. ул., дом 22\/2, строение 1" }, "geometry": { "type": "Point", "coordinates": [ 37.66360204, 55.76922568 ] } },
{ "type": "Feature", "properties": { "lat": "55.76951433", "lon": "37.66542562", "photographed": "0", "name": "Дом Демидова", "address": "Басманная Нов. ул., дом 26, корпус 1" }, "geometry": { "type": "Point", "coordinates": [ 37.66542562, 55.76951433 ] } },
{ "type": "Feature", "properties": { "lat": "55.76940799", "lon": "37.66459917", "photographed": "0", "name": "Боковой флигель", "address": "Басманная Нов. ул., дом 26, корпус 7" }, "geometry": { "type": "Point", "coordinates": [ 37.66459917, 55.76940799 ] } },
{ "type": "Feature", "properties": { "lat": "55.76939786", "lon": "37.66610833", "photographed": "0", "name": "Боковой флигель", "address": "Басманная Нов. ул., дом 26, корпус 2" }, "geometry": { "type": "Point", "coordinates": [ 37.66610833, 55.76939786 ] } },
{ "type": "Feature", "properties": { "lat": "55.76951433", "lon": "37.66542562", "photographed": "0", "name": "Главный дом", "address": "Басманная Нов. ул., дом 26, корпус 1" }, "geometry": { "type": "Point", "coordinates": [ 37.66542562, 55.76951433 ] } },
{ "type": "Feature", "properties": { "lat": "", "lon": "", "photographed": "0", "name": "Ограда и ворота", "address": "" }, "geometry": { "type": "Point", "coordinates": [ 0.0, 0.0 ] } },
{ "type": "Feature", "properties": { "lat": "55.768461", "lon": "37.66466205", "photographed": "0", "name": "Служебный флигель", "address": "Басманная Нов. ул., дом 26, корпус 5" }, "geometry": { "type": "Point", "coordinates": [ 37.66466205, 55.768461 ] } },
{ "type": "Feature", "properties": { "lat": "55.76997515", "lon": "37.66512019", "photographed": "0", "name": "Басманная часть", "address": "Басманная Нов. ул., дом 29, строение 3" }, "geometry": { "type": "Point", "coordinates": [ 37.66512019, 55.76997515 ] } },
{ "type": "Feature", "properties": { "lat": "55.77019", "lon": "37.66409", "photographed": "0", "name": "Арестный дом", "address": "Басманная Нов. ул., дом 29, строение 3" }, "geometry": { "type": "Point", "coordinates": [ 37.66409, 55.77019 ] } },
{ "type": "Feature", "properties": { "lat": "", "lon": "", "photographed": "0", "name": "Территория культурного слоя \"Капитанской слободы\" XVII-XVIII вв. н.э. (место древнего поселения с зоной культурного слоя)", "address": "Ново-Басманная улица и прилегающая территория" }, "geometry": { "type": "Point", "coordinates": [ 0.0, 0.0 ] } },
{ "type": "Feature", "properties": { "lat": "55.76558446", "lon": "37.65853554", "photographed": "0", "name": "Дом правления Московско-Курской и Нижегородской-Муромской железных дорог (с архитектурно-художественными интерьерами)", "address": "Басманная Стар. ул., дом 11\/2, строение 1" }, "geometry": { "type": "Point", "coordinates": [ 37.65853554, 55.76558446 ] } },
{ "type": "Feature", "properties": { "lat": "55.76489062", "lon": "37.65949673", "photographed": "0", "name": "Доходный  дом О.О.Вильнера", "address": "Басманная Стар. ул., дом 12, строение 1" }, "geometry": { "type": "Point", "coordinates": [ 37.65949673, 55.76489062 ] } },
{ "type": "Feature", "properties": { "lat": "", "lon": "", "photographed": "0", "name": "Памятник Н.Э.Бауману (бюст)", "address": "Басманная Стар. ул., дом 15" }, "geometry": { "type": "Point", "coordinates": [ 0.0, 0.0 ] } },
{ "type": "Feature", "properties": { "lat": "55.7656503", "lon": "37.66049386", "photographed": "0", "name": "Усадьба", "address": "Басманная Стар. ул., дом 15, строение 3" }, "geometry": { "type": "Point", "coordinates": [ 37.66049386, 55.7656503 ] } },
{ "type": "Feature", "properties": { "lat": "55.76587314", "lon": "37.66115862", "photographed": "0", "name": "Грот", "address": "Старая Басманная ул., д. 15 (грот)" }, "geometry": { "type": "Point", "coordinates": [ 37.66115862, 55.76587314 ] } },
{ "type": "Feature", "properties": { "lat": "55.76696199", "lon": "37.66070048", "photographed": "0", "name": "Городская усадьба И.К. Прове", "address": "Басманная Стар. ул., дом 17, строение 2" }, "geometry": { "type": "Point", "coordinates": [ 37.66070048, 55.76696199 ] } },
{ "type": "Feature", "properties": { "lat": "55.76612636", "lon": "37.66291033", "photographed": "0", "name": "Комплекс сооружений", "address": "Басманная Стар. ул., дом 18, строение 2" }, "geometry": { "type": "Point", "coordinates": [ 37.66291033, 55.76612636 ] } },
{ "type": "Feature", "properties": { "lat": "55.76624284", "lon": "37.66333254", "photographed": "0", "name": "Жилой дом", "address": "Басманная Стар. ул., дом 18, строение 3" }, "geometry": { "type": "Point", "coordinates": [ 37.66333254, 55.76624284 ] } },
{ "type": "Feature", "properties": { "lat": "55.76638465", "lon": "37.66220066", "photographed": "0", "name": "Усадьба", "address": "Басманная Стар. ул., дом 19, строение 16" }, "geometry": { "type": "Point", "coordinates": [ 37.66220066, 55.76638465 ] } },
{ "type": "Feature", "properties": { "lat": "55.76641503", "lon": "37.66186829", "photographed": "0", "name": "Главный дом", "address": "Басманная Стар. ул., дом 19, строение 1" }, "geometry": { "type": "Point", "coordinates": [ 37.66186829, 55.76641503 ] } },
{ "type": "Feature", "properties": { "lat": "55.76659735", "lon": "37.66211981", "photographed": "0", "name": "Службы", "address": "Старая Басманная ул., д. 19,  стр. 13" }, "geometry": { "type": "Point", "coordinates": [ 37.66211981, 55.76659735 ] } },
{ "type": "Feature", "properties": { "lat": "55.76638465", "lon": "37.66220066", "photographed": "0", "name": "Флигель", "address": "Басманная Стар. ул., дом 19, строение 16" }, "geometry": { "type": "Point", "coordinates": [ 37.66220066, 55.76638465 ] } },
{ "type": "Feature", "properties": { "lat": "55.76651126", "lon": "37.66412306", "photographed": "0", "name": "Городская усадьба (дом З.Г.Чернышева)", "address": "Басманная Стар. ул., дом 20, строение 1" }, "geometry": { "type": "Point", "coordinates": [ 37.66412306, 55.76651126 ] } },
{ "type": "Feature", "properties": { "lat": "55.76651126", "lon": "37.66412306", "photographed": "0", "name": "флигель", "address": "Басманная Стар. ул., дом 20, строение 1" }, "geometry": { "type": "Point", "coordinates": [ 37.66412306, 55.76651126 ] } },
{ "type": "Feature", "properties": { "lat": "55.76673409", "lon": "37.66328762", "photographed": "0", "name": "Главный дом с двумя флигелями  и полуциркульным корпусом парадного двора", "address": "Басманная Стар. ул., дом 21\/4, строение 1" }, "geometry": { "type": "Point", "coordinates": [ 37.66328762, 55.76673409 ] } },
{ "type": "Feature", "properties": { "lat": "55.76805081", "lon": "37.66341339", "photographed": "0", "name": "Флигель", "address": "Басманная Стар. ул., дом 21\/4, строение 4" }, "geometry": { "type": "Point", "coordinates": [ 37.66341339, 55.76805081 ] } },
{ "type": "Feature", "properties": { "lat": "55.76778747", "lon": "37.68619466", "photographed": "0", "name": "Дворец Меншикова: три корпуса", "address": "Бауманская 2-я ул., дом 3" }, "geometry": { "type": "Point", "coordinates": [ 37.68619466, 55.76778747 ] } },
{ "type": "Feature", "properties": { "lat": "55.76753425", "lon": "37.6854311", "photographed": "0", "name": "Корпус по полукружию во дворе", "address": "Бауманская 2-я ул., дом 3, строение 3" }, "geometry": { "type": "Point", "coordinates": [ 37.6854311, 55.76753425 ] } },
{ "type": "Feature", "properties": { "lat": "55.76820273", "lon": "37.68561076", "photographed": "0", "name": "Корпус по полукружию во дворе", "address": "Бауманская 2-я ул., дом 3, строение 2" }, "geometry": { "type": "Point", "coordinates": [ 37.68561076, 55.76820273 ] } },
{ "type": "Feature", "properties": { "lat": "55.76778747", "lon": "37.68619466", "photographed": "0", "name": "Палаты Петра Первого", "address": "Бауманская 2-я ул., дом 3" }, "geometry": { "type": "Point", "coordinates": [ 37.68619466, 55.76778747 ] } },
{ "type": "Feature", "properties": { "lat": "", "lon": "", "photographed": "0", "name": "Слободской дворец. Ограда", "address": "Бауманская 2-я ул., дом 5" }, "geometry": { "type": "Point", "coordinates": [ 0.0, 0.0 ] } },
{ "type": "Feature", "properties": { "lat": "55.77279", "lon": "37.68004", "photographed": "0", "name": "перронный зал", "address": "" }, "geometry": { "type": "Point", "coordinates": [ 37.68004, 55.77279 ] } },
{ "type": "Feature", "properties": { "lat": "", "lon": "", "photographed": "0", "name": "Колокольня храма во имя св. вмц. Екатерины Николо-Рогожской старообрядческой общины в доме И.И.Карасева", "address": "Бауманская ул., дом 18" }, "geometry": { "type": "Point", "coordinates": [ 0.0, 0.0 ] } },
{ "type": "Feature", "properties": { "lat": "55.77177", "lon": "37.67859", "photographed": "0", "name": "Ворота", "address": "Бауманская ул., дом 36" }, "geometry": { "type": "Point", "coordinates": [ 37.67859, 55.77177 ] } },
{ "type": "Feature", "properties": { "lat": "55.77159052", "lon": "37.67848712", "photographed": "0", "name": "Дом", "address": "Бауманская ул., д. 38, стр. 1" }, "geometry": { "type": "Point", "coordinates": [ 37.67848712, 55.77159052 ] } },
{ "type": "Feature", "properties": { "lat": "55.77184", "lon": "37.67855", "photographed": "0", "name": "Флигель", "address": "Бауманская ул., дом 36" }, "geometry": { "type": "Point", "coordinates": [ 37.67855, 55.77184 ] } },
{ "type": "Feature", "properties": { "lat": "", "lon": "", "photographed": "0", "name": "Памятник А.С.Пушкину (бюст)", "address": "Бауманская ул., дом 40" }, "geometry": { "type": "Point", "coordinates": [ 0.0, 0.0 ] } },
{ "type": "Feature", "properties": { "lat": "55.77078031", "lon": "37.6786578", "photographed": "0", "name": "Жилой дом", "address": "Бауманская ул., дом 42" }, "geometry": { "type": "Point", "coordinates": [ 37.6786578, 55.77078031 ] } },
{ "type": "Feature", "properties": { "lat": "55.7705727", "lon": "37.6787656", "photographed": "0", "name": "Жилой дом", "address": "Бауманская ул., дом 44, строение 1" }, "geometry": { "type": "Point", "coordinates": [ 37.6787656, 55.7705727 ] } },
{ "type": "Feature", "properties": { "lat": "55.7670734", "lon": "37.68005917", "photographed": "0", "name": "Дом жилой", "address": "Бауманская ул., дом 53, строение 4" }, "geometry": { "type": "Point", "coordinates": [ 37.68005917, 55.7670734 ] } },
{ "type": "Feature", "properties": { "lat": "55.76829895", "lon": "37.68171207", "photographed": "0", "name": "Палаты (Дом Анны Монс)", "address": "Бауманская ул., дом 53, строение 8" }, "geometry": { "type": "Point", "coordinates": [ 37.68171207, 55.76829895 ] } },
{ "type": "Feature", "properties": { "lat": "55.77704379", "lon": "37.67412131", "photographed": "0", "name": "Жилой дом П.П.Щапова", "address": "Бауманская ул., д.58\/25, корп.12, стр.2" }, "geometry": { "type": "Point", "coordinates": [ 37.67412131, 55.77704379 ] } },
{ "type": "Feature", "properties": { "lat": "55.76762541", "lon": "37.67733728", "photographed": "0", "name": "Жилой дом П.В. Щапова", "address": "Бауманская ул., дом 58\/3, строение 5" }, "geometry": { "type": "Point", "coordinates": [ 37.67733728, 55.76762541 ] } },
{ "type": "Feature", "properties": { "lat": "55.77036001", "lon": "37.68502685", "photographed": "0", "name": "Городская усадьба Матвеевых", "address": "Волховский пер., дом 21\/5, строение 1" }, "geometry": { "type": "Point", "coordinates": [ 37.68502685, 55.77036001 ] } },
{ "type": "Feature", "properties": { "lat": "55.75597587", "lon": "37.65376548", "photographed": "0", "name": "Электростанция", "address": "Подсосенский пер., дом 21, строение 1" }, "geometry": { "type": "Point", "coordinates": [ 37.65376548, 55.75597587 ] } },
{ "type": "Feature", "properties": { "lat": "55.75330612", "lon": "37.64992968", "photographed": "0", "name": "Городская усадьба Е.Н.Вандышниковой - Э.М.Банза", "address": "Воронцово Поле ул., дом 3, строение 3" }, "geometry": { "type": "Point", "coordinates": [ 37.64992968, 55.75330612 ] } },
{ "type": "Feature", "properties": { "lat": "55.75330612", "lon": "37.64992968", "photographed": "0", "name": "Главный дом", "address": "Воронцово Поле ул., дом 3, строение 1" }, "geometry": { "type": "Point", "coordinates": [ 37.64992968, 55.75330612 ] } },
{ "type": "Feature", "properties": { "lat": "", "lon": "", "photographed": "0", "name": "Ограда", "address": "нет данных БТИ" }, "geometry": { "type": "Point", "coordinates": [ 0.0, 0.0 ] } },
{ "type": "Feature", "properties": { "lat": "", "lon": "", "photographed": "0", "name": "Парковая скульптура перед главным фасадом", "address": "нет данных БТИ" }, "geometry": { "type": "Point", "coordinates": [ 0.0, 0.0 ] } },
{ "type": "Feature", "properties": { "lat": "55.75330612", "lon": "37.64992968", "photographed": "0", "name": "Флигель", "address": "Воронцово Поле ул., дом 3, строение 3" }, "geometry": { "type": "Point", "coordinates": [ 37.64992968, 55.75330612 ] } },
{ "type": "Feature", "properties": { "lat": "55.75408629", "lon": "37.65266056", "photographed": "0", "name": "Главный дом городской усадьбы", "address": "Воронцово Поле ул., дом 7" }, "geometry": { "type": "Point", "coordinates": [ 37.65266056, 55.75408629 ] } },
{ "type": "Feature", "properties": { "lat": "", "lon": "", "photographed": "0", "name": "Городская усадьба", "address": "ул. Воронцово Поле, д.9, стр.1,3 (нет адреса БТИ)" }, "geometry": { "type": "Point", "coordinates": [ 0.0, 0.0 ] } },
{ "type": "Feature", "properties": { "lat": "55.75411669", "lon": "37.65357684", "photographed": "0", "name": "Главный дом", "address": "ул. Воронцово Поле, д. 9, стр. 3" }, "geometry": { "type": "Point", "coordinates": [ 37.65357684, 55.75411669 ] } },
{ "type": "Feature", "properties": { "lat": "55.75434466", "lon": "37.65296598", "photographed": "0", "name": "Флигель", "address": "ул. Воронцово Поле, д. 9, стр. 1 (нет адреса БТИ )" }, "geometry": { "type": "Point", "coordinates": [ 37.65296598, 55.75434466 ] } },
{ "type": "Feature", "properties": { "lat": "55.75443", "lon": "37.65405", "photographed": "0", "name": "Жилой дом", "address": "Воронцово Поле ул., дом 11\/32, строение 2" }, "geometry": { "type": "Point", "coordinates": [ 37.65405, 55.75443 ] } },
{ "type": "Feature", "properties": { "lat": "55.75464355", "lon": "37.65473566", "photographed": "0", "name": "Усадьба", "address": "Воронцово Поле ул., дом 13, строение 2" }, "geometry": { "type": "Point", "coordinates": [ 37.65473566, 55.75464355 ] } },
{ "type": "Feature", "properties": { "lat": "55.75460809", "lon": "37.65449312", "photographed": "0", "name": "Главный дом", "address": "Воронцово Поле ул., дом 13, строение 1" }, "geometry": { "type": "Point", "coordinates": [ 37.65449312, 55.75460809 ] } },
{ "type": "Feature", "properties": { "lat": "55.75464355", "lon": "37.65473566", "photographed": "0", "name": "Флигель", "address": "Воронцово Поле ул., дом 13, строение 2" }, "geometry": { "type": "Point", "coordinates": [ 37.65473566, 55.75464355 ] } },
{ "type": "Feature", "properties": { "lat": "55.76487542", "lon": "37.66316186", "photographed": "0", "name": "Дом Демидова", "address": "Гороховский пер., дом 4, корпус 6" }, "geometry": { "type": "Point", "coordinates": [ 37.66316186, 55.76487542 ] } },
{ "type": "Feature", "properties": { "lat": "55.76454622", "lon": "37.66158981", "photographed": "0", "name": "Боковой флигель", "address": "Гороховский пер., дом 4, корпус 1, строение 12" }, "geometry": { "type": "Point", "coordinates": [ 37.66158981, 55.76454622 ] } },
{ "type": "Feature", "properties": { "lat": "55.76428286", "lon": "37.66269474", "photographed": "0", "name": "Главный дом с интерьерами (\"Золотые комнаты\")", "address": "Гороховский пер., дом 4, корпус 1А" }, "geometry": { "type": "Point", "coordinates": [ 37.66269474, 55.76428286 ] } },
{ "type": "Feature", "properties": { "lat": "", "lon": "", "photographed": "0", "name": "Ограда", "address": "" }, "geometry": { "type": "Point", "coordinates": [ 0.0, 0.0 ] } },
{ "type": "Feature", "properties": { "lat": "55.76402456", "lon": "37.6647429", "photographed": "0", "name": "Городская усадьба: главный дом, флигель, служебный корпус с палатами", "address": "Гороховский пер., дом 6" }, "geometry": { "type": "Point", "coordinates": [ 37.6647429, 55.76402456 ] } },
{ "type": "Feature", "properties": { "lat": "", "lon": "", "photographed": "0", "name": "Ограда", "address": "" }, "geometry": { "type": "Point", "coordinates": [ 0.0, 0.0 ] } },
{ "type": "Feature", "properties": { "lat": "55.76402456", "lon": "37.6647429", "photographed": "0", "name": "Служебный корпус с палатами", "address": "Гороховский пер., дом 6\/1, строение 1" }, "geometry": { "type": "Point", "coordinates": [ 37.6647429, 55.76402456 ] } },
{ "type": "Feature", "properties": { "lat": "55.7645918", "lon": "37.66403323", "photographed": "0", "name": "Флигель", "address": "Гороховский пер., дом 6\/1, строение 1" }, "geometry": { "type": "Point", "coordinates": [ 37.66403323, 55.7645918 ] } },
{ "type": "Feature", "properties": { "lat": "55.76501723", "lon": "37.66805768", "photographed": "0", "name": "Особняк С.К.Морозова", "address": "Гороховский пер., дом 14" }, "geometry": { "type": "Point", "coordinates": [ 37.66805768, 55.76501723 ] } },
{ "type": "Feature", "properties": { "lat": "55.76559459", "lon": "37.66845294", "photographed": "0", "name": "Городская усадьба", "address": "Гороховский пер., дом 19, строение 4" }, "geometry": { "type": "Point", "coordinates": [ 37.66845294, 55.76559459 ] } },
{ "type": "Feature", "properties": { "lat": "55.76583769", "lon": "37.66803073", "photographed": "0", "name": "Главный дом", "address": "Гороховский пер., дом 19" }, "geometry": { "type": "Point", "coordinates": [ 37.66803073, 55.76583769 ] } },
{ "type": "Feature", "properties": { "lat": "55.76559459", "lon": "37.66845294", "photographed": "0", "name": "Флигель", "address": "Гороховский пер., дом 19, строение 4" }, "geometry": { "type": "Point", "coordinates": [ 37.66845294, 55.76559459 ] } },
{ "type": "Feature", "properties": { "lat": "55.76681006", "lon": "37.69802548", "photographed": "0", "name": "Сады Военного госпиталя (16.5 га.)", "address": "Госпитальная пл." }, "geometry": { "type": "Point", "coordinates": [ 37.69802548, 55.76681006 ] } },
{ "type": "Feature", "properties": { "lat": "55.76578704", "lon": "37.69833989", "photographed": "0", "name": "Большая Померанцевая оранжерея - Казарма 2-го Московского кадетского корпуса - Жилой дом учеников Московской Военно-фельдшерской школы", "address": "Госпитальная пл., д. 1\/10" }, "geometry": { "type": "Point", "coordinates": [ 37.69833989, 55.76578704 ] } },
{ "type": "Feature", "properties": { "lat": "55.76932696", "lon": "37.69434238", "photographed": "0", "name": "Первый военный госпиталь", "address": "Госпитальная пл., дом 1-3, строение 2" }, "geometry": { "type": "Point", "coordinates": [ 37.69434238, 55.76932696 ] } },
{ "type": "Feature", "properties": { "lat": "55.76913959", "lon": "37.69701038", "photographed": "0", "name": "Анатомический театр", "address": "Госпитальная пл., дом 1-3, строение 9" }, "geometry": { "type": "Point", "coordinates": [ 37.69701038, 55.76913959 ] } },
{ "type": "Feature", "properties": { "lat": "55.76739752", "lon": "37.69646241", "photographed": "0", "name": "Главный корпус", "address": "Госпитальная пл., дом 1-3, строение 1" }, "geometry": { "type": "Point", "coordinates": [ 37.69646241, 55.76739752 ] } },
{ "type": "Feature", "properties": { "lat": "55.76793939", "lon": "37.69875311", "photographed": "0", "name": "Корпус № 26", "address": "Госпитальная пл., дом 1-3, строение 8" }, "geometry": { "type": "Point", "coordinates": [ 37.69875311, 55.76793939 ] } },
{ "type": "Feature", "properties": { "lat": "55.76681006", "lon": "37.69802548", "photographed": "0", "name": "Корпус № 27", "address": "Госпитальная пл." }, "geometry": { "type": "Point", "coordinates": [ 37.69802548, 55.76681006 ] } },
{ "type": "Feature", "properties": { "lat": "55.76856735", "lon": "37.69975024", "photographed": "0", "name": "Корпус № 28", "address": "Госпитальная пл., дом 1-3, строение 6" }, "geometry": { "type": "Point", "coordinates": [ 37.69975024, 55.76856735 ] } },
{ "type": "Feature", "properties": { "lat": "55.76885601", "lon": "37.7001994", "photographed": "0", "name": "Корпус № 29", "address": "Госпитальная пл., дом 1-3, строение 5" }, "geometry": { "type": "Point", "coordinates": [ 37.7001994, 55.76885601 ] } },
{ "type": "Feature", "properties": { "lat": "55.76932696", "lon": "37.69434238", "photographed": "0", "name": "Корпус на набережной реки Яузы с храмом Воскресения Христова", "address": "Госпитальная пл., дом 1-3, строение 2" }, "geometry": { "type": "Point", "coordinates": [ 37.69434238, 55.76932696 ] } },
{ "type": "Feature", "properties": { "lat": "55.76739752", "lon": "37.69646241", "photographed": "0", "name": "Корпус на оси главного корпуса со стороны парка", "address": "Госпитальная пл., дом 1-3, строение 1" }, "geometry": { "type": "Point", "coordinates": [ 37.69646241, 55.76739752 ] } },
{ "type": "Feature", "properties": { "lat": "55.76942824", "lon": "37.69629173", "photographed": "0", "name": "Новые бани", "address": "Госпитальная пл., дом 1-3, строение 10" }, "geometry": { "type": "Point", "coordinates": [ 37.69629173, 55.76942824 ] } },
{ "type": "Feature", "properties": { "lat": "", "lon": "", "photographed": "0", "name": "Ограда с воротами и кордегардией", "address": "" }, "geometry": { "type": "Point", "coordinates": [ 0.0, 0.0 ] } },
{ "type": "Feature", "properties": { "lat": "", "lon": "", "photographed": "0", "name": "Ограда с воротами", "address": "" }, "geometry": { "type": "Point", "coordinates": [ 0.0, 0.0 ] } },
{ "type": "Feature", "properties": { "lat": "55.76629349", "lon": "37.70048686", "photographed": "0", "name": "Дом Шаховской", "address": "Госпитальная пл., д.2, стр.1 (unom 2120327)" }, "geometry": { "type": "Point", "coordinates": [ 37.70048686, 55.76629349 ] } },
{ "type": "Feature", "properties": { "lat": "55.76974728", "lon": "37.6867606", "photographed": "0", "name": "Дом сенатора, библиофила, дир. Эрмитажа Д.П.Бутурлина, в котором в детские годы неоднократно бывал А.С.Пушкин", "address": "Госпитальный пер., дом 4А, корпус 1" }, "geometry": { "type": "Point", "coordinates": [ 37.6867606, 55.76974728 ] } },
{ "type": "Feature", "properties": { "lat": "55.76515904", "lon": "37.64020092", "photographed": "0", "name": "Доходный дом Плещеевых", "address": "Гусятников пер., дом 3\/1, строение 1" }, "geometry": { "type": "Point", "coordinates": [ 37.64020092, 55.76515904 ] } },
{ "type": "Feature", "properties": { "lat": "55.76470323", "lon": "37.64172806", "photographed": "0", "name": "Жилой дом Э.А. фон Беренса", "address": "Гусятников пер., дом 7, строение 1" }, "geometry": { "type": "Point", "coordinates": [ 37.64172806, 55.76470323 ] } },
{ "type": "Feature", "properties": { "lat": "55.76412079", "lon": "37.64238383", "photographed": "0", "name": "Доходный дом (\"Дом с рыцарем\") М.О. Эпштейна", "address": "Гусятников пер., дом 11" }, "geometry": { "type": "Point", "coordinates": [ 37.64238383, 55.76412079 ] } },
{ "type": "Feature", "properties": { "lat": "55.76535149", "lon": "37.67679829", "photographed": "0", "name": "Дом жилой", "address": "Демидовский Б. пер., дом 17\/1" }, "geometry": { "type": "Point", "coordinates": [ 37.67679829, 55.76535149 ] } },
{ "type": "Feature", "properties": { "lat": "55.76714937", "lon": "37.67778643", "photographed": "0", "name": "Дом жилой с палатами XVIII в.", "address": "Денисовский пер., дом 23, строение 1" }, "geometry": { "type": "Point", "coordinates": [ 37.67778643, 55.76714937 ] } },
{ "type": "Feature", "properties": { "lat": "55.76665306", "lon": "37.67589997", "photographed": "0", "name": "Жилой дом (деревянный) А.В. Крупенникова", "address": "Денисовский пер., дом 24" }, "geometry": { "type": "Point", "coordinates": [ 37.67589997, 55.76665306 ] } },
{ "type": "Feature", "properties": { "lat": "55.76867876", "lon": "37.67245044", "photographed": "0", "name": "Дом Союза Строителей", "address": "Доброслободская ул., дом 5" }, "geometry": { "type": "Point", "coordinates": [ 37.67245044, 55.76867876 ] } },
{ "type": "Feature", "properties": { "lat": "55.77261338", "lon": "37.67352842", "photographed": "0", "name": "Жилой дом (Головкина)", "address": "Елоховский пр., дом 1" }, "geometry": { "type": "Point", "coordinates": [ 37.67352842, 55.77261338 ] } },
{ "type": "Feature", "properties": { "lat": "55.76278875", "lon": "37.64569861", "photographed": "0", "name": "Дом, в котором жил и в 1921 г. умер Жуковский Николай Егорович", "address": "Жуковского ул., дом 8, строение 3" }, "geometry": { "type": "Point", "coordinates": [ 37.64569861, 55.76278875 ] } },
{ "type": "Feature", "properties": { "lat": "55.76169978", "lon": "37.64761202", "photographed": "0", "name": "Дом, в котором заседал Московский Совет рабочих депутатов в 1905 г., назначивший вооруженное восстание на 7\/20 декабря 1905 г.", "address": "Жуковского ул., дом 16" }, "geometry": { "type": "Point", "coordinates": [ 37.64761202, 55.76169978 ] } },
{ "type": "Feature", "properties": { "lat": "55.75505389", "lon": "37.63880853", "photographed": "0", "name": "Городская усадьба Н.А. Сумарокова - Н.А. Тюляевой", "address": "Забелина ул., дом 3, строение 8" }, "geometry": { "type": "Point", "coordinates": [ 37.63880853, 55.75505389 ] } },
{ "type": "Feature", "properties": { "lat": "55.75511468", "lon": "37.6380809", "photographed": "0", "name": "Ограда кон. XIX в.", "address": "Забелина ул., дом 3, строение 2" }, "geometry": { "type": "Point", "coordinates": [ 37.6380809, 55.75511468 ] } },
{ "type": "Feature", "properties": { "lat": "55.75505389", "lon": "37.63880853", "photographed": "0", "name": "Флигель (сторожка)", "address": "Забелина ул., дом 3, строение 8" }, "geometry": { "type": "Point", "coordinates": [ 37.63880853, 55.75505389 ] } },
{ "type": "Feature", "properties": { "lat": "55.7613047", "lon": "37.65628975", "photographed": "0", "name": "Квартира, в которой жил Чкалов Валерий Павлович в 1936-1938 гг.", "address": "Земляной Вал ул., дом 14-16, строение 1" }, "geometry": { "type": "Point", "coordinates": [ 37.65628975, 55.7613047 ] } },
{ "type": "Feature", "properties": { "lat": "55.75896963", "lon": "37.65833791", "photographed": "0", "name": "Жилой дом с торговыми и административными помещениями для работников Курской железной дороги", "address": "Земляной Вал ул., дом 27, строение 1" }, "geometry": { "type": "Point", "coordinates": [ 37.65833791, 55.75896963 ] } },
{ "type": "Feature", "properties": { "lat": "55.75914692", "lon": "37.65881401", "photographed": "0", "name": "Жилой дом", "address": "Земляной Вал ул., дом 27, строение 3" }, "geometry": { "type": "Point", "coordinates": [ 37.65881401, 55.75914692 ] } },
{ "type": "Feature", "properties": { "lat": "55.75624943", "lon": "37.65862537", "photographed": "0", "name": "Дом", "address": "Земляной Вал ул., дом 35, строение 1" }, "geometry": { "type": "Point", "coordinates": [ 37.65862537, 55.75624943 ] } },
{ "type": "Feature", "properties": { "lat": "55.75986113", "lon": "37.63176574", "photographed": "0", "name": "Доходное владение Товарищества Невской Ниточной Мануфактуры: Доходный дом К.Ф.Цыганова", "address": "Златоустинский Б. пер., дом 1, строение 1" }, "geometry": { "type": "Point", "coordinates": [ 37.63176574, 55.75986113 ] } },
{ "type": "Feature", "properties": { "lat": "55.75783497", "lon": "37.63236761", "photographed": "0", "name": "Большая Сибирская гостиница Н.Д.Стахеева", "address": "Златоустинский Б. пер., дом 6, строение 1" }, "geometry": { "type": "Point", "coordinates": [ 37.63236761, 55.75783497 ] } },
{ "type": "Feature", "properties": { "lat": "55.75818449", "lon": "37.63345457", "photographed": "0", "name": "Дом и школа", "address": "Златоустинский М. пер., дом 1\/11" }, "geometry": { "type": "Point", "coordinates": [ 37.63345457, 55.75818449 ] } },
{ "type": "Feature", "properties": { "lat": "55.75840737", "lon": "37.63375102", "photographed": "0", "name": "Городская усадьба М.Ф.Казакова - Е.М.Татищевой", "address": "Златоустинский М. пер., дом 3, строение 3" }, "geometry": { "type": "Point", "coordinates": [ 37.63375102, 55.75840737 ] } },
{ "type": "Feature", "properties": { "lat": "55.75851374", "lon": "37.63401153", "photographed": "0", "name": "Главный дом", "address": "Златоустинский М. пер., дом 3, строение 1" }, "geometry": { "type": "Point", "coordinates": [ 37.63401153, 55.75851374 ] } },
{ "type": "Feature", "properties": { "lat": "55.75840737", "lon": "37.63375102", "photographed": "0", "name": "Жилой флигель - доходный дом", "address": "Златоустинский М. пер., дом 3, строение 3" }, "geometry": { "type": "Point", "coordinates": [ 37.63375102, 55.75840737 ] } },
{ "type": "Feature", "properties": { "lat": "55.75411669", "lon": "37.64074889", "photographed": "0", "name": "Восточный дом причта со служебными постройками", "address": "Ивановский М. пер., дом 2\/4, строение 3" }, "geometry": { "type": "Point", "coordinates": [ 37.64074889, 55.75411669 ] } },
{ "type": "Feature", "properties": { "lat": "55.75391911", "lon": "37.64052432", "photographed": "0", "name": "Дом причта северный", "address": "Ивановский М. пер., дом 4, строение 2" }, "geometry": { "type": "Point", "coordinates": [ 37.64052432, 55.75391911 ] } },
{ "type": "Feature", "properties": { "lat": "", "lon": "", "photographed": "0", "name": "Кельи южные", "address": "нет адреса БТИ" }, "geometry": { "type": "Point", "coordinates": [ 0.0, 0.0 ] } },
{ "type": "Feature", "properties": { "lat": "55.75463342", "lon": "37.64059618", "photographed": "0", "name": "Корпус больничный и Храм прп. Елисаветы", "address": "Ивановский М. пер., дом 2А, строение 1" }, "geometry": { "type": "Point", "coordinates": [ 37.64059618, 55.75463342 ] } },
{ "type": "Feature", "properties": { "lat": "55.75469421", "lon": "37.63928464", "photographed": "0", "name": "Корпус настоятельский", "address": "Ивановский М. пер., дом 2\/4, строение 1" }, "geometry": { "type": "Point", "coordinates": [ 37.63928464, 55.75469421 ] } },
{ "type": "Feature", "properties": { "lat": "", "lon": "", "photographed": "0", "name": "Ограда с башнями", "address": "" }, "geometry": { "type": "Point", "coordinates": [ 0.0, 0.0 ] } },
{ "type": "Feature", "properties": { "lat": "55.75457769", "lon": "37.64012007", "photographed": "0", "name": "Собор Усекновения главы Иоанна Предтечи с галереями", "address": "Ивановский М. пер., дом 2, строение 33" }, "geometry": { "type": "Point", "coordinates": [ 37.64012007, 55.75457769 ] } },
{ "type": "Feature", "properties": { "lat": "55.75463342", "lon": "37.64059618", "photographed": "0", "name": "Храм прп. Елисаветы", "address": "Ивановский М. пер., дом 2А, строение 1" }, "geometry": { "type": "Point", "coordinates": [ 37.64059618, 55.75463342 ] } },
{ "type": "Feature", "properties": { "lat": "55.75495257", "lon": "37.64023685", "photographed": "0", "name": "Часовня Иоанна Предтечи", "address": "Ивановский М. пер., дом 2А, строение 2" }, "geometry": { "type": "Point", "coordinates": [ 37.64023685, 55.75495257 ] } },
{ "type": "Feature", "properties": { "lat": "55.76257095", "lon": "37.66856074", "photographed": "0", "name": "Усадьба А.К.Разумовского", "address": "Казакова ул., дом 18, строение 1" }, "geometry": { "type": "Point", "coordinates": [ 37.66856074, 55.76257095 ] } },
{ "type": "Feature", "properties": { "lat": "55.76257095", "lon": "37.66856074", "photographed": "0", "name": "Главный дом", "address": "Казакова ул., дом 18, строение 1" },